station_uid,station_num,routes,direction,station,lat,lon,station_uid2,station_num2,station2,lat2,lon2,distance_km
0_0_6,0,6,0,ท่าน้ำพระประแดง,13.6594,100.535141,1_0_6,1,ป้ายกลางตลาด,13.659541,100.533023,0.22938619949205313
1_0_6,1,6,0,ป้ายกลางตลาด,13.659541,100.533023,2_0_6,2,วัดพญาปราบ,13.660282,100.531442,0.18965955109460195
2_0_6,2,6,0,วัดพญาปราบ,13.660282,100.531442,3_0_6,3,วัดกลาง,13.660546,100.529004,0.2650552939102403
3_0_6,3,6,0,วัดกลาง,13.660546,100.529004,4_0_6,4,ปากซอยพระราชวิริยาภรณ์,13.661442,100.526945,0.24376355615333595
4_0_6,4,6,0,ปากซอยพระราชวิริยาภรณ์,13.661442,100.526945,5_0_6,5,ใต้สะพานภูมิพล,13.664029,100.526899,0.2877042099702137
5_0_6,5,6,0,ใต้สะพานภูมิพล,13.664029,100.526899,6_0_6,6,ซอยพระราชวิริยาภรณ์ 9,13.665206,100.52664,0.13383483052327388
6_0_6,6,6,0,ซอยพระราชวิริยาภรณ์ 9,13.665206,100.52664,7_0_6,7,วัดไพชยนต์พลเสพย์,13.665963,100.526443,0.08682407397543865
7_0_6,7,6,0,วัดไพชยนต์พลเสพย์,13.665963,100.526443,8_0_6,8,ซอยพระราชวิริยาภรณ์ 11,13.666099,100.525107,0.14514066798356948
8_0_6,8,6,0,ซอยพระราชวิริยาภรณ์ 11,13.666099,100.525107,9_0_6,9,โรงเรียนพลอยจตุรจินดา,13.667131,100.523394,0.21777132310505395
9_0_6,9,6,0,โรงเรียนพลอยจตุรจินดา,13.667131,100.523394,10_0_6,10,วัดบางพึ่ง,13.667877,100.521974,0.17441438000567225
10_0_6,10,6,0,วัดบางพึ่ง,13.667877,100.521974,11_0_6,11,วัดรวก,13.667667,100.520077,0.20628937290878646
11_0_6,11,6,0,วัดรวก,13.667667,100.520077,12_0_6,12,ซอยสุดเขต,13.668694,100.519251,0.1449339068563847
12_0_6,12,6,0,ซอยสุดเขต,13.668694,100.519251,13_0_6,13,ซอยราษฎร์บูรณะ 48,13.670155,100.518961,0.16544984064483637
13_0_6,13,6,0,ซอยราษฎร์บูรณะ 48,13.670155,100.518961,14_0_6,14,วัดแจงร้อน,13.673517,100.518026,0.3872462784059123
14_0_6,14,6,0,วัดแจงร้อน,13.673517,100.518026,15_0_6,15,เซปเตอร์วัน,13.675227,100.517041,0.21789957061926857
15_0_6,15,6,0,เซปเตอร์วัน,13.675227,100.517041,16_0_6,16,ซอยราษฎร์บูรณะ 36,13.676682,100.515093,0.26546511040823123
16_0_6,16,6,0,ซอยราษฎร์บูรณะ 36,13.676682,100.515093,17_0_6,17,สวนใต้สะพานพระราม 9,13.677456,100.513827,0.16160508794472844
17_0_6,17,6,0,สวนใต้สะพานพระราม 9,13.677456,100.513827,18_0_6,18,การไฟฟ้านครหลวงราษฎร์บูรณะ ธนาคารกสิกรไทยสำนักงานใหญ่,13.678234,100.512525,0.16514230611764957
18_0_6,18,6,0,การไฟฟ้านครหลวงราษฎร์บูรณะ ธนาคารกสิกรไทยสำนักงานใหญ่,13.678234,100.512525,19_0_6,19,ซอยราษฎร์บูรณะ 28 ซอยโรงแก้ว,13.679326,100.510559,0.24466605535912156
19_0_6,19,6,0,ซอยราษฎร์บูรณะ 28 ซอยโรงแก้ว,13.679326,100.510559,20_0_6,20,ซอยราษฎร์บูรณะ 26,13.680158,100.50909,0.18370703850618011
20_0_6,20,6,0,ซอยราษฎร์บูรณะ 26,13.680158,100.50909,21_0_6,21,อนามัย 39,13.681202,100.506824,0.27094778976892586
21_0_6,21,6,0,อนามัย 39,13.681202,100.506824,22_0_6,22,ป้ายธนาคารธกส,13.682158,100.502317,0.4984034759817468
22_0_6,22,6,0,ป้ายธนาคารธกส,13.682158,100.502317,23_0_6,23,บิ๊กซีราษฎร์บูรณะ,13.682497,100.500136,0.23863009243873579
23_0_6,23,6,0,บิ๊กซีราษฎร์บูรณะ,13.682497,100.500136,24_0_6,24,โรงเรียนวัดบางปะกอก,13.684506,100.495558,0.5427104562951002
24_0_6,24,6,0,โรงเรียนวัดบางปะกอก,13.684506,100.495558,25_0_6,25,ราษฎร์บูรณะ 12,13.685579,100.49392,0.21343045865780735
25_0_6,25,6,0,ราษฎร์บูรณะ 12,13.685579,100.49392,26_0_6,26,ไอวี่,13.687291,100.492225,0.26414652137634703
26_0_6,26,6,0,ไอวี่,13.687291,100.492225,27_0_6,27,ราษฎร์บูรณะ 6,13.689376,100.488778,0.43867305962706377
27_0_6,27,6,0,ราษฎร์บูรณะ 6,13.689376,100.488778,28_0_6,28,โรงเรียนวัดดาวคะนอง,13.696825,100.486202,0.8737935390530216
28_0_6,28,6,0,โรงเรียนวัดดาวคะนอง,13.696825,100.486202,29_0_6,29,วัดบุคคโล,13.700706,100.487411,0.45087955603333196
29_0_6,29,6,0,วัดบุคคโล,13.700706,100.487411,30_0_6,30,มาสด้า,13.704208,100.489187,0.434104662333411
30_0_6,30,6,0,มาสด้า,13.704208,100.489187,31_0_6,31,สน.บุคคโล/สน.สำเหร่,13.706538,100.490999,0.32471835292045176
31_0_6,31,6,0,สน.บุคคโล/สน.สำเหร่,13.706538,100.490999,32_0_6,32,เจริญนคร 56,13.708055,100.493287,0.2992421796733851
32_0_6,32,6,0,เจริญนคร 56,13.708055,100.493287,33_0_6,33,โรงเรียนเกื้อวิทยา,13.709167,100.495228,0.24342389561245142
33_0_6,33,6,0,โรงเรียนเกื้อวิทยา,13.709167,100.495228,34_0_6,34,สมาคมตระกูลลิ้ม,13.70982,100.496346,0.14092071948412757
34_0_6,34,6,0,สมาคมตระกูลลิ้ม,13.70982,100.496346,35_0_6,35,ซอยเจริญนคร 40/38,13.711222,100.498951,0.3217054203707195
35_0_6,35,6,0,ซอยเจริญนคร 40/38,13.711222,100.498951,36_0_6,36,ซอยเจริญนคร 34,13.711812,100.500357,0.16544772949997527
36_0_6,36,6,0,ซอยเจริญนคร 34,13.711812,100.500357,37_0_6,37,ซอยเจริญนคร 32,13.712452,100.501823,0.17362066333470316
37_0_6,37,6,0,ซอยเจริญนคร 32,13.712452,100.501823,38_0_6,38,สำนักงานที่ดินเขตธนบุรี (วัดเศวกฉัตร),13.714136,100.504059,0.3056257525514494
38_0_6,38,6,0,สำนักงานที่ดินเขตธนบุรี (วัดเศวกฉัตร),13.714136,100.504059,39_0_6,39,ซอยเจริญนคร 24,13.715646,100.505788,0.251150391618165
39_0_6,39,6,0,ซอยเจริญนคร 24,13.715646,100.505788,40_0_6,40,คลองต้นไทร ซอยเจริญนคร 18,13.717765,100.507549,0.30282844836468387
40_0_6,40,6,0,คลองต้นไทร ซอยเจริญนคร 18,13.717765,100.507549,41_0_6,41,ท่าน้ำเป๊ปซี่ ใต้สะพานตากสิน,13.720243,100.508608,0.2983442406643261
41_0_6,41,6,0,ท่าน้ำเป๊ปซี่ ใต้สะพานตากสิน,13.720243,100.508608,42_0_6,42,วัดสุวรรณ,13.723647,100.508949,0.3802956554696526
42_0_6,42,6,0,วัดสุวรรณ,13.723647,100.508949,43_0_6,43,คลองสาน ไอคอนสยาม,13.727762,100.508806,0.45782777928932195
43_0_6,43,6,0,คลองสาน ไอคอนสยาม,13.727762,100.508806,44_0_6,44,โรงพยาบาลตากสิน,13.730466,100.507276,0.34309827662460934
44_0_6,44,6,0,โรงพยาบาลตากสิน,13.730466,100.507276,45_0_6,45,โรงพยาบาลสมเด็จเจ้าพระยา,13.731219,100.505247,0.234616182761978
45_0_6,45,6,0,โรงพยาบาลสมเด็จเจ้าพระยา,13.731219,100.505247,46_0_6,46,วัฒนาบริหารธุรกิจ,13.731679,100.503897,0.15453338370393863
46_0_6,46,6,0,วัฒนาบริหารธุรกิจ,13.731679,100.503897,47_0_6,47,ซอยสมเด็จเจ้าพระยา12,13.732742,100.500752,0.3596880346205232
47_0_6,47,6,0,ซอยสมเด็จเจ้าพระยา12,13.732742,100.500752,48_0_6,48,ซอยสมเด็จพระยา6,13.733276,100.499196,0.17825355782335622
48_0_6,48,6,0,ซอยสมเด็จพระยา6,13.733276,100.499196,49_0_6,49,ถนนพญาไม้,13.736036,100.497213,0.3742534805132911
49_0_6,49,6,0,ถนนพญาไม้,13.736036,100.497213,50_0_6,50,ใต้สะพานพุด,13.738333,100.497288,0.255543186190185
50_0_6,50,6,0,ใต้สะพานพุด,13.738333,100.497288,51_0_6,51,วัดเลียบ โรงเรียนสวนกุหลาบวิทยาลัย,13.743045,100.498781,0.5482059985012736
51_0_6,51,6,0,วัดเลียบ โรงเรียนสวนกุหลาบวิทยาลัย,13.743045,100.498781,52_0_6,52,บ้านหม้อ,13.746296,100.499506,0.3698790822170114
52_0_6,52,6,0,บ้านหม้อ,13.746296,100.499506,53_0_6,53,ก่อนสี่กั๊กพระยาศรี,13.747131,100.498526,0.14080075034852887
53_0_6,53,6,0,ก่อนสี่กั๊กพระยาศรี,13.747131,100.498526,54_0_6,54,หน่วยบัญชาการรักษาดินแดน (รด.),13.74731,100.495131,0.3672323549529722
54_0_6,54,6,0,หน่วยบัญชาการรักษาดินแดน (รด.),13.74731,100.495131,55_0_6,55,สนามหลวง (ศาลฎีกา),13.754647,100.493878,0.826985821629559
55_0_6,55,6,0,สนามหลวง (ศาลฎีกา),13.754647,100.493878,56_0_6,56,โรงละครแห่งชาติ,13.759761,100.492177,0.597591449351838
56_0_6,56,6,0,โรงละครแห่งชาติ,13.759761,100.492177,57_0_6,57,ป้ายพระอาทิตย์,13.762042,100.49334,0.28303419334528707
57_0_6,57,6,0,ป้ายพระอาทิตย์,13.762042,100.49334,58_0_6,58,ป้อมพระสุเมรุ,13.762868,100.494409,0.14753192854342068
58_0_6,58,6,0,ป้อมพระสุเมรุ,13.762868,100.494409,59_0_6,59,บางลำพู,13.760699,100.496781,0.35184981528609555
60_1_6,60,6,1,แยกคอกวัว,13.757268,100.49798,61_1_6,61,สนามหลวง (ศาลฎีกา),13.755645,100.494434,0.42337709094845066
61_1_6,61,6,1,สนามหลวง (ศาลฎีกา),13.755645,100.494434,62_1_6,62,สนามหลวง (ศาลหลักเมือง),13.753796,100.493899,0.21356504579234128
62_1_6,62,6,1,สนามหลวง (ศาลหลักเมือง),13.753796,100.493899,63_1_6,63,กระทรวงกะลาโหม,13.750613,100.493923,0.3539429438042582
63_1_6,63,6,1,กระทรวงกะลาโหม,13.750613,100.493923,64_1_6,64,สวนเจ้าเชตุ,13.745826,100.494451,0.5353363912242873
64_1_6,64,6,1,สวนเจ้าเชตุ,13.745826,100.494451,65_1_6,65,สำนักงานเขตที่ดิน-กรุงเทพสนามยิงปืน รด.,13.745536,100.495682,0.13681513645831456
65_1_6,65,6,1,สำนักงานเขตที่ดิน-กรุงเทพสนามยิงปืน รด.,13.745536,100.495682,66_1_6,66,พหุรัด โรงเรียนสวนกุหลาบวิทยาลัย วัดเลียบ,13.74336,100.499024,0.4345638528343431
66_1_6,66,6,1,พหุรัด โรงเรียนสวนกุหลาบวิทยาลัย วัดเลียบ,13.74336,100.499024,67_1_6,67,สวนใต้สะพานปกเกล้า,13.740679,100.498718,0.2999402112744987
67_1_6,67,6,1,สวนใต้สะพานปกเกล้า,13.740679,100.498718,68_1_6,68,วัดอนงคาราม,13.733738,100.498251,0.7734506138036065
68_1_6,68,6,1,วัดอนงคาราม,13.733738,100.498251,69_1_6,69,ท่าดินแดง1 ซอยสมเด็จเจ้าพระยา 9,13.732715,100.501313,0.34975984236887214
69_1_6,69,6,1,ท่าดินแดง1 ซอยสมเด็จเจ้าพระยา 9,13.732715,100.501313,70_1_6,70,ท่าดินแดง2,13.73202,100.503299,0.22801618297894766
70_1_6,70,6,1,ท่าดินแดง2,13.73202,100.503299,71_1_6,71,โรงพยาบาลสมเด็จเจ้าพระยา,13.73145,100.504993,0.19364650767810257
71_1_6,71,6,1,โรงพยาบาลสมเด็จเจ้าพระยา,13.73145,100.504993,72_1_6,72,โรงพยาบาลตากสิน,13.730578,100.507483,0.28590635355617966
72_1_6,72,6,1,โรงพยาบาลตากสิน,13.730578,100.507483,73_1_6,73,คลองสาน ไอคอนสยาม,13.728008,100.508997,0.3292568260604254
73_1_6,73,6,1,คลองสาน ไอคอนสยาม,13.728008,100.508997,74_1_6,74,วัดสุวรรณ,13.723449,100.509133,0.507150487614503
74_1_6,74,6,1,วัดสุวรรณ,13.723449,100.509133,75_1_6,75,ท่าน้ำเป๊ปซี่ ใต้สะพานตากสิน,13.719877,100.508773,0.3990874350251058
75_1_6,75,6,1,ท่าน้ำเป๊ปซี่ ใต้สะพานตากสิน,13.719877,100.508773,76_1_6,76,เจริญนคร 17,13.717612,100.507697,0.27738363441831787
76_1_6,76,6,1,เจริญนคร 17,13.717612,100.507697,77_1_6,77,โรงเรียนอนุบาลศันสนีย์,13.71575,100.506221,0.26132290140665826
77_1_6,77,6,1,โรงเรียนอนุบาลศันสนีย์,13.71575,100.506221,78_1_6,78,สำนักงานที่ดินเขตธนบุรี (วัดเศวกฉัตร),13.714387,100.504668,0.22608425325152365
78_1_6,78,6,1,สำนักงานที่ดินเขตธนบุรี (วัดเศวกฉัตร),13.714387,100.504668,79_1_6,79,ศุภาลัยริเวอร์เพลส,13.712089,100.501509,0.4263170934295905
79_1_6,79,6,1,ศุภาลัยริเวอร์เพลส,13.712089,100.501509,80_1_6,80,เจริญนคร 49,13.710975,100.498856,0.3122173004008569
80_1_6,80,6,1,เจริญนคร 49,13.710975,100.498856,81_1_6,81,ตลาดเจริญนคร,13.709871,100.496877,0.24652310954763781
81_1_6,81,6,1,ตลาดเจริญนคร,13.709871,100.496877,82_1_6,82,ศุภาลัยริเวอร์รีสอร์ท,13.708969,100.495259,0.2015201967945212
82_1_6,82,6,1,ศุภาลัยริเวอร์รีสอร์ท,13.708969,100.495259,83_1_6,83,ซอยเจริญนคร 57/1,13.707828,100.493271,0.2494356122996062
83_1_6,83,6,1,ซอยเจริญนคร 57/1,13.707828,100.493271,84_1_6,84,ท่าสาย111,13.707151,100.492076,0.1494389842879333
84_1_6,84,6,1,ท่าสาย111,13.707151,100.492076,85_1_6,85,ซอยเจริญนคร61,13.701645,100.488039,0.7516865220846197
85_1_6,85,6,1,ซอยเจริญนคร61,13.701645,100.488039,86_1_6,86,วัดบุคคโล,13.700074,100.487409,0.1874772587608765
86_1_6,86,6,1,วัดบุคคโล,13.700074,100.487409,87_1_6,87,วัดดาวคะนอง,13.696984,100.486411,0.3601110421641777
87_1_6,87,6,1,วัดดาวคะนอง,13.696984,100.486411,88_1_6,88,ซอยราษฎร์บูรณะ 11,13.689555,100.488872,0.8677990404687809
88_1_6,88,6,1,ซอยราษฎร์บูรณะ 11,13.689555,100.488872,89_1_6,89,ไอวี่ ริเวอร์,13.688188,100.491619,0.33343832599924067
89_1_6,89,6,1,ไอวี่ ริเวอร์,13.688188,100.491619,90_1_6,90,ปั้มน้ำมันซัสโก้,13.685937,100.493857,0.3480102570935866
90_1_6,90,6,1,ปั้มน้ำมันซัสโก้,13.685937,100.493857,91_1_6,91,กรุงเทพคลังเอกสาร- โรงเรียนวัดบางปะกอก,13.684738,100.495626,0.23302693096760385
91_1_6,91,6,1,กรุงเทพคลังเอกสาร- โรงเรียนวัดบางปะกอก,13.684738,100.495626,92_1_6,92,บิ๊กซีราษฎร์บูรณะ,13.682612,100.500379,0.5653107173106953
92_1_6,92,6,1,บิ๊กซีราษฎร์บูรณะ,13.682612,100.500379,93_1_6,93,วัดราษฎร์บูรณะ,13.682312,100.502717,0.2547892730855749
93_1_6,93,6,1,วัดราษฎร์บูรณะ,13.682312,100.502717,94_1_6,94,สาธารณะสุข 39,13.681393,100.506908,0.464182130880073
94_1_6,94,6,1,สาธารณะสุข 39,13.681393,100.506908,95_1_6,95,ตรงข้ามซอยราษฎร์บูรณะ 26 คลังสินค้ากรุงไทย,13.680309,100.509287,0.2838870849238807
95_1_6,95,6,1,ตรงข้ามซอยราษฎร์บูรณะ 26 คลังสินค้ากรุงไทย,13.680309,100.509287,96_1_6,96,ซอยราษฎร์บูรณะ25,13.679553,100.510613,0.16610413648396288
96_1_6,96,6,1,ซอยราษฎร์บูรณะ25,13.679553,100.510613,97_1_6,97,การไฟฟ้านครหลวง ราษฎร์บูรณะ ธนาคารกสิกรสำนักงานใหญ่,13.67843,100.51255,0.24369894898033267
97_1_6,97,6,1,การไฟฟ้านครหลวง ราษฎร์บูรณะ ธนาคารกสิกรสำนักงานใหญ่,13.67843,100.51255,98_1_6,98,สวนใต้สะพานพระราม 9,13.677514,100.514142,0.19989755862402772
98_1_6,98,6,1,สวนใต้สะพานพระราม 9,13.677514,100.514142,99_1_6,99,ซอยราษฎร์บูรณะ 29,13.676848,100.515205,0.13665441987763133
99_1_6,99,6,1,ซอยราษฎร์บูรณะ 29,13.676848,100.515205,100_1_6,100,เซปเตอร์วัน ราษฎร์บูรณะ,13.675529,100.517099,0.25176422662510894
100_1_6,100,6,1,เซปเตอร์วัน ราษฎร์บูรณะ,13.675529,100.517099,101_1_6,101,วัดแจงร้อน,13.673639,100.518185,0.2406948075723476
101_1_6,101,6,1,วัดแจงร้อน,13.673639,100.518185,102_1_6,102,ราษฎร์บูรณะ 39,13.670912,100.519045,0.3171455466656277
102_1_6,102,6,1,ราษฎร์บูรณะ 39,13.670912,100.519045,103_1_6,103,คลังSVOA ราษฎร์บูรณะ,13.669356,100.519339,0.17591108803819133
103_1_6,103,6,1,คลังSVOA ราษฎร์บูรณะ,13.669356,100.519339,104_1_6,104,วัดรวก,13.667909,100.520248,0.18850573733137455
104_1_6,104,6,1,วัดรวก,13.667909,100.520248,105_1_6,105,วัดบางพึ่ง,13.668092,100.521779,0.16666534269158173
105_1_6,105,6,1,วัดบางพึ่ง,13.668092,100.521779,106_1_6,106,โรงเรียนพลอยจาตุรจินดา,13.667378,100.523088,0.16219248418627044
106_1_6,106,6,1,โรงเรียนพลอยจาตุรจินดา,13.667378,100.523088,107_1_6,107,พระราชวิริยาภรณ์ 10,13.666363,100.524886,0.22467299772331598
107_1_6,107,6,1,พระราชวิริยาภรณ์ 10,13.666363,100.524886,108_1_6,108,วัดไพชยนต์พลเสพย์,13.666168,100.526319,0.15634199796560713
108_1_6,108,6,1,วัดไพชยนต์พลเสพย์,13.666168,100.526319,109_1_6,109,พระราชวิริยาภรณ์ 6,13.665456,100.526695,0.08898572759151249
109_1_6,109,6,1,พระราชวิริยาภรณ์ 6,13.665456,100.526695,110_1_6,110,ใต้สะพานภูมิพล,13.664038,100.527116,0.16410477397025636
110_1_6,110,6,1,ใต้สะพานภูมิพล,13.664038,100.527116,111_1_6,111,ปากซอยพระราชวิริยาภรณ์ คอนโดพิสาน,13.662015,100.527264,0.22551501301441634
111_1_6,111,6,1,ปากซอยพระราชวิริยาภรณ์ คอนโดพิสาน,13.662015,100.527264,112_1_6,112,แยก 86,13.660926,100.526814,0.13048831922337878
112_1_6,112,6,1,แยก 86,13.660926,100.526814,113_1_6,113,วัดกลาง,13.660725,100.528512,0.18482407942599532
113_1_6,113,6,1,วัดกลาง,13.660725,100.528512,114_1_6,114,ตลาดพระประแดง,13.659807,100.532763,0.4705245922656055
114_1_6,114,6,1,ตลาดพระประแดง,13.659807,100.532763,115_1_6,115,ท่าน้ำพระประแดง,13.6594,100.535141,0.2608977495266389
0_0_7,0,7,0,วัดราษฎร์รังสรรค์ (คอกกระบือ),13.593604,100.33,1_0_7,1,คลองสี่วาพาสวัสดิ์,13.594935,100.331296,0.20377466965411728
1_0_7,1,7,0,คลองสี่วาพาสวัสดิ์,13.594935,100.331296,2_0_7,2,เบญจวัลย์,13.598339,100.334681,0.5264137687203082
2_0_7,2,7,0,เบญจวัลย์,13.598339,100.334681,3_0_7,3,หมื่นทรัพย์แลนด์,13.603037,100.337981,0.6325321850266572
3_0_7,3,7,0,หมื่นทรัพย์แลนด์,13.603037,100.337981,4_0_7,4,ตลาดรุ่งนิรันดร์,13.60652,100.340407,0.4676949287307209
4_0_7,4,7,0,ตลาดรุ่งนิรันดร์,13.60652,100.340407,5_0_7,5,ซอยกลิ่นสุวรรณ,13.610169,100.342935,0.4891591258377791
5_0_7,5,7,0,ซอยกลิ่นสุวรรณ,13.610169,100.342935,6_0_7,6,วิเศษสุขนคร,13.611379,100.343775,0.16230747641764698
6_0_7,6,7,0,วิเศษสุขนคร,13.611379,100.343775,7_0_7,7,ซอยต้นตาล,13.613158,100.345075,0.24263009081881123
7_0_7,7,7,0,ซอยต้นตาล,13.613158,100.345075,8_0_7,8,โกลเด้นท์เพลส,13.614221,100.345878,0.14663634169153703
8_0_7,8,7,0,โกลเด้นท์เพลส,13.614221,100.345878,9_0_7,9,ซอยตลับทอง,13.615858,100.347091,0.22431648603748242
9_0_7,9,7,0,ซอยตลับทอง,13.615858,100.347091,10_0_7,10,ธนาคารกสิกร,13.618015,100.348634,0.29211765755960134
10_0_7,10,7,0,ธนาคารกสิกร,13.618015,100.348634,11_0_7,11,ซอยบ่อดิน,13.619196,100.349457,0.15860539102665724
11_0_7,11,7,0,ซอยบ่อดิน,13.619196,100.349457,12_0_7,12,ตลาดนัดโพธิ์แจ้,13.620377,100.350538,0.17576276286315481
12_0_7,12,7,0,ตลาดนัดโพธิ์แจ้,13.620377,100.350538,13_0_7,13,หน้าวัดโพธิ์แจ้,13.621874,100.352285,0.2516975737754051
13_0_7,13,7,0,หน้าวัดโพธิ์แจ้,13.621874,100.352285,14_0_7,14,ตรวจคนเข้าเมืองจังหวัดสมุทรสาคร,13.623546,100.354121,0.271904812169465
14_0_7,14,7,0,ตรวจคนเข้าเมืองจังหวัดสมุทรสาคร,13.623546,100.354121,15_0_7,15,โรงเรียนสารสาสน์วิเทศน์เอกชัย 2,13.626066,100.357147,0.4306413582636701
15_0_7,15,7,0,โรงเรียนสารสาสน์วิเทศน์เอกชัย 2,13.626066,100.357147,16_0_7,16,โรงพยาบาลส่งเสริมสุขภาพตำบล บ้านโพธิ์แจ้,13.629006,100.360599,0.49601425438828267
16_0_7,16,7,0,โรงพยาบาลส่งเสริมสุขภาพตำบล บ้านโพธิ์แจ้,13.629006,100.360599,17_0_7,17,อู่ 43,13.630033,100.361796,0.17254850313616027
17_0_7,17,7,0,อู่ 43,13.630033,100.361796,18_0_7,18,โรงเรียนศึกษานารีวิทยา,13.634139,100.366612,0.6923142764731305
18_0_7,18,7,0,โรงเรียนศึกษานารีวิทยา,13.634139,100.366612,19_0_7,19,เอกชัย 132 ตรงข้ามเขตบางบอน,13.6351,100.367755,0.16332308455508537
19_0_7,19,7,0,เอกชัย 132 ตรงข้ามเขตบางบอน,13.6351,100.367755,20_0_7,20,เอกชัย 130 สำนักงานเขตบางบอน,13.63607,100.368902,0.16430504348794467
20_0_7,20,7,0,เอกชัย 130 สำนักงานเขตบางบอน,13.63607,100.368902,21_0_7,21,แยกบางบอน 5,13.637712,100.370809,0.2753206241129962
21_0_7,21,7,0,แยกบางบอน 5,13.637712,100.370809,22_0_7,22,บางบอน 5,13.639283,100.372663,0.26580575627259656
22_0_7,22,7,0,บางบอน 5,13.639283,100.372663,23_0_7,23,บางบอน 4,13.641537,100.375489,0.39505725205099007
23_0_7,23,7,0,บางบอน 4,13.641537,100.375489,24_0_7,24,วัดบางบอน,13.64394,100.378506,0.42151982897851753
24_0_7,24,7,0,วัดบางบอน,13.64394,100.378506,25_0_7,25,วิทยาลัยเทคนิคราชสิทธาราม,13.646631,100.381879,0.4715691657545752
25_0_7,25,7,0,วิทยาลัยเทคนิคราชสิทธาราม,13.646631,100.381879,26_0_7,26,เรือนจำพิเศษธนบุรี,13.648536,100.384311,0.33753420645549265
26_0_7,26,7,0,เรือนจำพิเศษธนบุรี,13.648536,100.384311,27_0_7,27,แยกบางบอน 3,13.650591,100.386536,0.3316883368183146
27_0_7,27,7,0,แยกบางบอน 3,13.650591,100.386536,28_0_7,28,แยกบางบอน 3/2,13.652175,100.385988,0.18581974228474854
28_0_7,28,7,0,แยกบางบอน 3/2,13.652175,100.385988,29_0_7,29,บึงบางบอน 1,13.655229,100.385175,0.3507676545924109
29_0_7,29,7,0,บึงบางบอน 1,13.655229,100.385175,30_0_7,30,บึงบางบอน 2,13.65807,100.384782,0.31874603800024276
30_0_7,30,7,0,บึงบางบอน 2,13.65807,100.384782,31_0_7,31,โรงเรียนสารสาสน์วิเทศบางบอน ประตู 1,13.660793,100.384596,0.3034500316798246
31_0_7,31,7,0,โรงเรียนสารสาสน์วิเทศบางบอน ประตู 1,13.660793,100.384596,32_0_7,32,ซอยข้าวสาร,13.662423,100.384689,0.18152606755033146
32_0_7,32,7,0,ซอยข้าวสาร,13.662423,100.384689,33_0_7,33,โรงเรียนสารสาสน์วิเทศบางบอน ประตู 3,13.663562,100.384766,0.12692398900971014
33_0_7,33,7,0,โรงเรียนสารสาสน์วิเทศบางบอน ประตู 3,13.663562,100.384766,34_0_7,34,แยกโรงเรียนบ้านนายเหรียญ,13.667344,100.384906,0.42081117326738054
34_0_7,34,7,0,แยกโรงเรียนบ้านนายเหรียญ,13.667344,100.384906,35_0_7,35,ทวีทอง 2,13.669986,100.384793,0.2940305889452005
35_0_7,35,7,0,ทวีทอง 2,13.669986,100.384793,36_0_7,36,ร่มไทร,13.674173,100.38494,0.46584398550078815
36_0_7,36,7,0,ร่มไทร,13.674173,100.38494,37_0_7,37,หมู่บ้านสุนทร 5,13.676467,100.38494,0.25508116172274364
37_0_7,37,7,0,หมู่บ้านสุนทร 5,13.676467,100.38494,38_0_7,38,หมู่บ้านศศิธร,13.678377,100.384212,0.22647903611274747
38_0_7,38,7,0,หมู่บ้านศศิธร,13.678377,100.384212,39_0_7,39,โรงเรียนกรพิทักษ์ศึกษา(หน้าโรงเรียน),13.679989,100.383647,0.18935540317079563
39_0_7,39,7,0,โรงเรียนกรพิทักษ์ศึกษา(หน้าโรงเรียน),13.679989,100.383647,40_0_7,40,โรงเรียนกรพิทักษ์ศึกษา,13.681148,100.383387,0.13190079357491907
40_0_7,40,7,0,โรงเรียนกรพิทักษ์ศึกษา,13.681148,100.383387,41_0_7,41,ไทยนํ้าทิพย์,13.68342,100.382862,0.2589239648103267
41_0_7,41,7,0,ไทยนํ้าทิพย์,13.68342,100.382862,42_0_7,42,บางแคภิรมย์,13.685296,100.382649,0.2098671566713239
42_0_7,42,7,0,บางแคภิรมย์,13.685296,100.382649,43_0_7,43,วินเจ,13.687087,100.382415,0.20074831862882475
43_0_7,43,7,0,วินเจ,13.687087,100.382415,44_0_7,44,คลองขวาง,13.692905,100.380684,0.6734195817057715
44_0_7,44,7,0,คลองขวาง,13.692905,100.380684,45_0_7,45,ซอยอินทาปัจ 11 โรงเรียนมณีวัฒนา,13.695366,100.379487,0.3026673596690982
45_0_7,45,7,0,ซอยอินทาปัจ 11 โรงเรียนมณีวัฒนา,13.695366,100.379487,46_0_7,46,ซอยอินทาปัจ 9 หมู่บ้านนิสา,13.69801,100.378252,0.322857072339908
46_0_7,46,7,0,ซอยอินทาปัจ 9 หมู่บ้านนิสา,13.69801,100.378252,47_0_7,47,บ้านนายพลกฤษณ์,13.699189,100.377691,0.1444298447589708
47_0_7,47,7,0,บ้านนายพลกฤษณ์,13.699189,100.377691,48_0_7,48,วัดราษฏร์บำรุง,13.701422,100.376648,0.2726683567829777
48_0_7,48,7,0,วัดราษฏร์บำรุง,13.701422,100.376648,49_0_7,49,ตลาดวรวิทย์,13.704697,100.375102,0.4006354154037008
49_0_7,49,7,0,ตลาดวรวิทย์,13.704697,100.375102,50_0_7,50,แยกวิคเตอร์เรีย,13.706812,100.374096,0.2590733643125657
50_0_7,50,7,0,แยกวิคเตอร์เรีย,13.706812,100.374096,51_0_7,51,ปากทางพระพรหม,13.708264,100.375199,0.20066285002422862
51_0_7,51,7,0,ปากทางพระพรหม,13.708264,100.375199,52_0_7,52,หมู่บ้านเศรษฐกิจ,13.708424,100.377176,0.21431011533804248
52_0_7,52,7,0,หมู่บ้านเศรษฐกิจ,13.708424,100.377176,53_0_7,53,อู่ข้าวอู่นํ้า,13.708637,100.379807,0.2852052456362728
53_0_7,53,7,0,อู่ข้าวอู่นํ้า,13.708637,100.379807,54_0_7,54,สถานีตำรวจนครบาลหลักสอง,13.708842,100.382521,0.29407094134799067
54_0_7,54,7,0,สถานีตำรวจนครบาลหลักสอง,13.708842,100.382521,55_0_7,55,สำนักปู่สวรรค์,13.709018,100.384691,0.23523457117305288
55_0_7,55,7,0,สำนักปู่สวรรค์,13.709018,100.384691,56_0_7,56,หมู่บ้านเพชรเกษม 3,13.709296,100.38794,0.35233877111692935
56_0_7,56,7,0,หมู่บ้านเพชรเกษม 3,13.709296,100.38794,57_0_7,57,วัดม่วง,13.709464,100.390152,0.2396848552214497
57_0_7,57,7,0,วัดม่วง,13.709464,100.390152,58_0_7,58,โรงเรียนอำนวยศิลป์ธนบุรี,13.709687,100.392848,0.2922942942428525
58_0_7,58,7,0,โรงเรียนอำนวยศิลป์ธนบุรี,13.709687,100.392848,59_0_7,59,แยกพุทธมณฑลสาย 2,13.709847,100.39466,0.19655149396370059
59_0_7,59,7,0,แยกพุทธมณฑลสาย 2,13.709847,100.39466,60_0_7,60,โรงพยาบาลเกษมราษฎร์ บางแค,13.710104,100.397972,0.35892402958000935
60_0_7,60,7,0,โรงพยาบาลเกษมราษฎร์ บางแค,13.710104,100.397972,61_0_7,61,ศูนย์บริการสาธารณสุข,13.710242,100.399663,0.18331644255948146
61_0_7,61,7,0,ศูนย์บริการสาธารณสุข,13.710242,100.399663,62_0_7,62,ซอยเพชรเกษม 88,13.710435,100.402289,0.2844884023632969
62_0_7,62,7,0,ซอยเพชรเกษม 88,13.710435,100.402289,63_0_7,63,เดอะมอลล์บางแค,13.71096,100.408014,0.621200311624146
63_0_7,63,7,0,เดอะมอลล์บางแค,13.71096,100.408014,64_0_7,64,หมู่บ้านศุภวรรณ,13.711108,100.410675,0.2879285652151417
64_0_7,64,7,0,หมู่บ้านศุภวรรณ,13.711108,100.410675,65_0_7,65,ซอยโรงแก้ว,13.711357,100.413365,0.2919064505406274
65_0_7,65,7,0,ซอยโรงแก้ว,13.711357,100.413365,66_0_7,66,โรงเรียนภาษานุสรณ์,13.711641,100.417164,0.4116041611731429
66_0_7,66,7,0,โรงเรียนภาษานุสรณ์,13.711641,100.417164,67_0_7,67,เทสโก้โลตัส,13.711848,100.419439,0.2468345253538303
67_0_7,67,7,0,เทสโก้โลตัส,13.711848,100.419439,68_0_7,68,ตลาดบางแค,13.712234,100.424621,0.5614327338347969
68_0_7,68,7,0,ตลาดบางแค,13.712234,100.424621,69_0_7,69,ตลาดบ่อหลา,13.712435,100.426994,0.2573173824432067
69_0_7,69,7,0,ตลาดบ่อหลา,13.712435,100.426994,70_0_7,70,เพชรเกษมซอย 1,13.712674,100.429987,0.3244108634705662
70_0_7,70,7,0,เพชรเกษมซอย 1,13.712674,100.429987,71_0_7,71,เพชรเกษมซอย 58,13.712777,100.431036,0.11389603830615408
71_0_7,71,7,0,เพชรเกษมซอย 58,13.712777,100.431036,72_0_7,72,ซีคอน,13.71297,100.433567,0.27425326894194296
72_0_7,72,7,0,ซีคอน,13.71297,100.433567,73_0_7,73,เขตภาษีเจริญ,13.713145,100.435727,0.23414470709443275
73_0_7,73,7,0,เขตภาษีเจริญ,13.713145,100.435727,74_0_7,74,วัดรางบัว,13.713491,100.438731,0.3267804629035087
74_0_7,74,7,0,วัดรางบัว,13.713491,100.438731,75_0_7,75,นันยางเก่า,13.7146,100.442135,0.3878429868045289
75_0_7,75,7,0,นันยางเก่า,13.7146,100.442135,76_0_7,76,วัดจันทร์ประดิษฐาราม กรุงเทพ,13.715394,100.444611,0.2816634657818088
76_0_7,76,7,0,วัดจันทร์ประดิษฐาราม กรุงเทพ,13.715394,100.444611,77_0_7,77,ศาลเจ้าพ่อเสือ,13.716246,100.447233,0.2986631533536531
77_0_7,77,7,0,ศาลเจ้าพ่อเสือ,13.716246,100.447233,78_0_7,78,ซอยชุมชน 42,13.717114,100.449898,0.3036317254608362
78_0_7,78,7,0,ซอยชุมชน 42,13.717114,100.449898,79_0_7,79,มหาวิทยาลัยสยาม 1,13.717845,100.452115,0.2529057866312458
79_0_7,79,7,0,มหาวิทยาลัยสยาม 1,13.717845,100.452115,80_0_7,80,มหาวิทยาลัยสยาม 2,13.718632,100.453765,0.19856184327870816
80_0_7,80,7,0,มหาวิทยาลัยสยาม 2,13.718632,100.453765,81_0_7,81,BTSบางหว้า,13.719672,100.455603,0.22976839460954632
81_0_7,81,7,0,BTSบางหว้า,13.719672,100.455603,82_0_7,82,ซอยเสริมมิตร,13.721948,100.459824,0.5214870069169698
82_0_7,82,7,0,ซอยเสริมมิตร,13.721948,100.459824,83_0_7,83,โรงพยาบาลพญาไท 3,13.722697,100.461269,0.17691980167815916
83_0_7,83,7,0,โรงพยาบาลพญาไท 3,13.722697,100.461269,84_0_7,84,โรงพยาบาลบางไผ่,13.724805,100.465142,0.4795523715645096
84_0_7,84,7,0,โรงพยาบาลบางไผ่,13.724805,100.465142,85_0_7,85,วิทยาลัยอาชีวศึกษากรุงเทพธนบุรี 1,13.726815,100.4688,0.45396571115459233
85_0_7,85,7,0,วิทยาลัยอาชีวศึกษากรุงเทพธนบุรี 1,13.726815,100.4688,86_0_7,86,วิทยาลัยอาชีวศึกษากรุงเทพธนบุรี 2,13.728246,100.471392,0.32204100759174664
86_0_7,86,7,0,วิทยาลัยอาชีวศึกษากรุงเทพธนบุรี 2,13.728246,100.471392,87_0_7,87,แยกท่าพระ,13.72932,100.476166,0.5293260889884771
87_0_7,87,7,0,แยกท่าพระ,13.72932,100.476166,88_0_7,88,ซอยวัดสังข์กระจาย,13.728752,100.479398,0.3547811596729061
88_0_7,88,7,0,ซอยวัดสังข์กระจาย,13.728752,100.479398,89_0_7,89,สะพานจำเนียร,13.728099,100.482964,0.3919770076372252
89_0_7,89,7,0,สะพานจำเนียร,13.728099,100.482964,90_0_7,90,วัดใหญ่ศรีสุวรรณ,13.727027,100.489451,0.7107834931160605
90_0_7,90,7,0,วัดใหญ่ศรีสุวรรณ,13.727027,100.489451,91_0_7,91,วงเวียนใหญ่,13.727859,100.493472,0.4440865981073695
91_0_7,91,7,0,วงเวียนใหญ่,13.727859,100.493472,92_0_7,92,สี่แยกบ้านแขก,13.729367,100.493993,0.17687393612297206
92_0_7,92,7,0,สี่แยกบ้านแขก,13.729367,100.493993,93_0_7,93,โรงเรียนศึกษานารี1(วงเวียนเล็ก),13.733437,100.495381,0.4767513215282337
93_0_7,93,7,0,โรงเรียนศึกษานารี1(วงเวียนเล็ก),13.733437,100.495381,94_0_7,94,พาหุรัด,13.743401,100.501445,1.2870753838576177
94_0_7,94,7,0,พาหุรัด,13.743401,100.501445,95_0_7,95,สี่แยกถนนเสือป่า,13.744107,100.507684,0.6784390347604572
95_0_7,95,7,0,สี่แยกถนนเสือป่า,13.744107,100.507684,96_0_7,96,เยาวราช,13.741103,100.511516,0.5318737748076398
96_0_7,96,7,0,เยาวราช,13.741103,100.511516,97_0_7,97,วงเวียน22กรกฎา,13.743251,100.514201,0.3757056121192236
97_0_7,97,7,0,วงเวียน22กรกฎา,13.743251,100.514201,98_0_7,98,โรงเรียนเทพศิรินทร์,13.745096,100.515511,0.24921696015814654
98_0_7,98,7,0,โรงเรียนเทพศิรินทร์,13.745096,100.515511,99_0_7,99,แยกนพวงค์,13.744895,100.516468,0.10575487666669353
99_0_7,99,7,0,แยกนพวงค์,13.744895,100.516468,100_0_7,100,หัวลำโพง,13.739717,100.516258,0.5762139479822764
101_1_7,101,7,1,แยกนพวงค์,13.744626,100.516295,102_1_7,102,แยกวัดพลับพลาชัย,13.745162,100.516346,0.05985450153128876
102_1_7,102,7,1,แยกวัดพลับพลาชัย,13.745162,100.516346,103_1_7,103,โรงพยาบาลกลาง,13.746384,100.510059,0.69252190978264
103_1_7,103,7,1,โรงพยาบาลกลาง,13.746384,100.510059,104_1_7,104,สี่แยกถนนเสือป่า,13.744812,100.50888,0.2162661146577546
104_1_7,104,7,1,สี่แยกถนนเสือป่า,13.744812,100.50888,105_1_7,105,โรงแรมแกรนด์ไชน่า,13.743949,100.508228,0.11902928299494334
105_1_7,105,7,1,โรงแรมแกรนด์ไชน่า,13.743949,100.508228,106_1_7,106,แยกวัดตึก,13.74368,100.505359,0.3113242740584449
106_1_7,106,7,1,แยกวัดตึก,13.74368,100.505359,107_1_7,107,พาหุรัด,13.74297,100.503622,0.20354982469965047
107_1_7,107,7,1,พาหุรัด,13.74297,100.503622,108_1_7,108,โรงเรียนศึกษานารี 2 (วงเวียนเล็ก),13.733091,100.49559,1.399772549841344
108_1_7,108,7,1,โรงเรียนศึกษานารี 2 (วงเวียนเล็ก),13.733091,100.49559,109_1_7,109,วัดแขก,13.729538,100.49438,0.4161337817684276
109_1_7,109,7,1,วัดแขก,13.729538,100.49438,110_1_7,110,วงเวียนใหญ่,13.727867,100.493796,0.19622321668382542
110_1_7,110,7,1,วงเวียนใหญ่,13.727867,100.493796,111_1_7,111,บางยี่เรือ,13.726749,100.489741,0.455315891988265
111_1_7,111,7,1,บางยี่เรือ,13.726749,100.489741,112_1_7,112,สะพานจำเนียร,13.727856,100.482995,0.7390180663388576
112_1_7,112,7,1,สะพานจำเนียร,13.727856,100.482995,113_1_7,113,เพชรเกษมซอย 3,13.728228,100.480802,0.24046881512267088
113_1_7,113,7,1,เพชรเกษมซอย 3,13.728228,100.480802,114_1_7,114,เพชรเกษมซอย 5,13.728547,100.478786,0.2206348309658991
114_1_7,114,7,1,เพชรเกษมซอย 5,13.728547,100.478786,115_1_7,115,เพชรเกษมซอย 7,13.728858,100.476794,0.21793330394687405
115_1_7,115,7,1,เพชรเกษมซอย 7,13.728858,100.476794,116_1_7,116,วัดประดู่(ท่าพระ),13.728032,100.471808,0.5463544473336337
116_1_7,116,7,1,วัดประดู่(ท่าพระ),13.728032,100.471808,117_1_7,117,วิบูลย์,13.726763,100.469387,0.29715355037173624
117_1_7,117,7,1,วิบูลย์,13.726763,100.469387,118_1_7,118,วัดนวล (บางไผ่),13.724541,100.465135,0.5215378554318871
118_1_7,118,7,1,วัดนวล (บางไผ่),13.724541,100.465135,119_1_7,119,โรงพยาบาลพญาไท,13.7232,100.462822,0.2909640288921481
119_1_7,119,7,1,โรงพยาบาลพญาไท,13.7232,100.462822,120_1_7,120,เสริมมิตร,13.72153,100.459715,0.38356817451918646
120_1_7,120,7,1,เสริมมิตร,13.72153,100.459715,121_1_7,121,BTSบางหว้า,13.71969,100.456272,0.4244814893703351
121_1_7,121,7,1,BTSบางหว้า,13.71969,100.456272,122_1_7,122,มหาวิทยาลัยสยาม,13.718653,100.454398,0.2329716725051652
122_1_7,122,7,1,มหาวิทยาลัยสยาม,13.718653,100.454398,123_1_7,123,มหาวิทยาลัยสยาม2(27/1),13.718252,100.453645,0.09276090238231798
123_1_7,123,7,1,มหาวิทยาลัยสยาม2(27/1),13.718252,100.453645,124_1_7,124,เพชรเกษม42,13.716926,100.450223,0.3979762433109027
124_1_7,124,7,1,เพชรเกษม42,13.716926,100.450223,125_1_7,125,ศาลเจ้าพ่อเสือ,13.716191,100.448012,0.2524366574623037
125_1_7,125,7,1,ศาลเจ้าพ่อเสือ,13.716191,100.448012,126_1_7,126,วัดจันทร์สโมสร,13.715146,100.444762,0.3698083152659253
126_1_7,126,7,1,วัดจันทร์สโมสร,13.715146,100.444762,127_1_7,127,โรงพยาบาลโรคผิวหนัง,13.714475,100.442633,0.2417843166409002
127_1_7,127,7,1,โรงพยาบาลโรคผิวหนัง,13.714475,100.442633,128_1_7,128,วัดรางบัว,13.713501,100.439664,0.33851860764881997
128_1_7,128,7,1,วัดรางบัว,13.713501,100.439664,129_1_7,129,เขตภาษีเจริญ,13.712879,100.435907,0.41170199448334793
129_1_7,129,7,1,เขตภาษีเจริญ,13.712879,100.435907,130_1_7,130,ซีคอน,13.712743,100.434417,0.1616667518683921
130_1_7,130,7,1,ซีคอน,13.712743,100.434417,131_1_7,131,โรงพยาบาลเพชรเกษม 2,13.712415,100.430255,0.45107921788662536
131_1_7,131,7,1,โรงพยาบาลเพชรเกษม 2,13.712415,100.430255,132_1_7,132,บ้านพักคนชรา,13.712155,100.427061,0.34624314088571234
132_1_7,132,7,1,บ้านพักคนชรา,13.712155,100.427061,133_1_7,133,ตลาดบางแค,13.711835,100.423414,0.3955737471863143
133_1_7,133,7,1,ตลาดบางแค,13.711835,100.423414,134_1_7,134,สี่แยกท่าเกษตร,13.711518,100.419482,0.42621815134940655
134_1_7,134,7,1,สี่แยกท่าเกษตร,13.711518,100.419482,135_1_7,135,นันยาง,13.711297,100.416786,0.29227324820399
135_1_7,135,7,1,นันยาง,13.711297,100.416786,136_1_7,136,เพชรเกษม 41/1,13.711088,100.414102,0.29087216096301477
136_1_7,136,7,1,เพชรเกษม 41/1,13.711088,100.414102,137_1_7,137,โรงเรียนบางแคเหนือ,13.710888,100.411802,0.24945373410425364
137_1_7,137,7,1,โรงเรียนบางแคเหนือ,13.710888,100.411802,138_1_7,138,เดอะมอลล์บางแค,13.710733,100.40969,0.22880174911828804
138_1_7,138,7,1,เดอะมอลล์บางแค,13.710733,100.40969,139_1_7,139,ศูนย์สาธารณสุข40,13.709972,100.400697,0.9751613174743512
139_1_7,139,7,1,ศูนย์สาธารณสุข40,13.709972,100.400697,140_1_7,140,โรงพยาบาลเกษมราษฎร์,13.709481,100.394455,0.6765103357914145
140_1_7,140,7,1,โรงพยาบาลเกษมราษฎร์,13.709481,100.394455,141_1_7,141,แยกสาย 2,13.709556,100.39541,0.10350226999923753
141_1_7,141,7,1,แยกสาย 2,13.709556,100.39541,142_1_7,142,อำนวยศิลป์,13.709342,100.392538,0.31116471071743307
142_1_7,142,7,1,อำนวยศิลป์,13.709342,100.392538,143_1_7,143,วัดม่วง,13.709128,100.390236,0.2498142507731944
143_1_7,143,7,1,วัดม่วง,13.709128,100.390236,144_1_7,144,หมู่บ้านหลักสองนิเวศ,13.708926,100.387601,0.2855364455324903
144_1_7,144,7,1,หมู่บ้านหลักสองนิเวศ,13.708926,100.387601,145_1_7,145,ปู่สวรรค์,13.708693,100.384659,0.31887054558875894
145_1_7,145,7,1,ปู่สวรรค์,13.708693,100.384659,146_1_7,146,บิ๊กซีเพชรเกษม,13.708541,100.383006,0.17936733311131492
146_1_7,146,7,1,บิ๊กซีเพชรเกษม,13.708541,100.383006,147_1_7,147,อู่ข้าวอู่น้ำ,13.708326,100.38031,0.2922215849756183
147_1_7,147,7,1,อู่ข้าวอู่น้ำ,13.708326,100.38031,148_1_7,148,หมู่บ้านเศรษฐกิจ,13.708124,100.377663,0.2868297461630591
148_1_7,148,7,1,หมู่บ้านเศรษฐกิจ,13.708124,100.377663,149_1_7,149,แยกพระพรหม,13.707872,100.374817,0.3087210098952532
149_1_7,149,7,1,แยกพระพรหม,13.707872,100.374817,150_1_7,150,ตลาดวรวิทย์,13.706667,100.374298,0.14524718653274613
150_1_7,150,7,1,ตลาดวรวิทย์,13.706667,100.374298,151_1_7,151,วัดราษาฎร์บำรุง,13.705124,100.375015,0.18824736932022965
151_1_7,151,7,1,วัดราษาฎร์บำรุง,13.705124,100.375015,152_1_7,152,หมู่บ้านสันติสุข,13.699737,100.377556,0.6589099658541818
152_1_7,152,7,1,หมู่บ้านสันติสุข,13.699737,100.377556,153_1_7,153,ซอยอินทาปัจ 9,13.698037,100.378384,0.20912730351000153
153_1_7,153,7,1,ซอยอินทาปัจ 9,13.698037,100.378384,154_1_7,154,อินทาปัจ 11,13.695685,100.379454,0.28593776531924964
154_1_7,154,7,1,อินทาปัจ 11,13.695685,100.379454,155_1_7,155,ตลาดคลองขวาง,13.693644,100.380473,0.2522395682185804
155_1_7,155,7,1,ตลาดคลองขวาง,13.693644,100.380473,156_1_7,156,วินเจเจ้าสัว,13.687633,100.382452,0.7017551743292769
156_1_7,156,7,1,วินเจเจ้าสัว,13.687633,100.382452,157_1_7,157,ปากแคภิรมย์,13.685323,100.382784,0.25935256024990283
157_1_7,157,7,1,ปากแคภิรมย์,13.685323,100.382784,158_1_7,158,ไทยน้ำทิพย์,13.683187,100.383054,0.23929696134876835
158_1_7,158,7,1,ไทยน้ำทิพย์,13.683187,100.383054,159_1_7,159,โรงเรียนกรพิทักษ์,13.681146,100.38353,0.23270259034428106
159_1_7,159,7,1,โรงเรียนกรพิทักษ์,13.681146,100.38353,160_1_7,160,ตลาดดวงดารา,13.67801,100.384504,0.36423958483084734
160_1_7,160,7,1,ตลาดดวงดารา,13.67801,100.384504,161_1_7,161,ซอยสุนทร 5,13.676522,100.38508,0.17677442153142248
161_1_7,161,7,1,ซอยสุนทร 5,13.676522,100.38508,162_1_7,162,ร่มไทร,13.674205,100.385072,0.25764009490247936
162_1_7,162,7,1,ร่มไทร,13.674205,100.385072,163_1_7,163,หมู่บ้านทวีทอง 2,13.66998,100.384928,0.4700561181659173
163_1_7,163,7,1,หมู่บ้านทวีทอง 2,13.66998,100.384928,164_1_7,164,ทางแยกโรงเรียนบ้านนายเหรียญ,13.668032,100.385014,0.21680692529802442
164_1_7,164,7,1,ทางแยกโรงเรียนบ้านนายเหรียญ,13.668032,100.385014,165_1_7,165,โรงเรียนสารสาสน์วิเทศบางบอน ประตู 3,13.664089,100.384943,0.4385087025473001
165_1_7,165,7,1,โรงเรียนสารสาสน์วิเทศบางบอน ประตู 3,13.664089,100.384943,166_1_7,166,โรงเรียนสารสาสน์วิเทศบางบอน ประตู 2,13.662564,100.384848,0.16988264756187926
166_1_7,166,7,1,โรงเรียนสารสาสน์วิเทศบางบอน ประตู 2,13.662564,100.384848,167_1_7,167,โรงเรียนสารสาสน์วิเทศบางบอน ประตู 1,13.660946,100.384737,0.18031270241832692
167_1_7,167,7,1,โรงเรียนสารสาสน์วิเทศบางบอน ประตู 1,13.660946,100.384737,168_1_7,168,บึงบางบอน 1,13.658116,100.384886,0.3150932051171654
168_1_7,168,7,1,บึงบางบอน 1,13.658116,100.384886,169_1_7,169,บึงบางบอนซ 4,13.65539,100.38527,0.30594394470450426
169_1_7,169,7,1,บึงบางบอนซ 4,13.65539,100.38527,170_1_7,170,แยกบางบอน 3,13.651759,100.386265,0.41781812630424237
170_1_7,170,7,1,แยกบางบอน 3,13.651759,100.386265,171_1_7,171,วิทยาลัยราชสิทธาราม,13.646242,100.38177,0.7824617976531482
171_1_7,171,7,1,วิทยาลัยราชสิทธาราม,13.646242,100.38177,172_1_7,172,โตโยต้า,13.644821,100.37999,0.24892026183407628
172_1_7,172,7,1,โตโยต้า,13.644821,100.37999,173_1_7,173,วัดบางบอน(วัดตาเฉย),13.643775,100.378659,0.18496824552630287
173_1_7,173,7,1,วัดบางบอน(วัดตาเฉย),13.643775,100.378659,174_1_7,174,บางบอน 4,13.641463,100.375771,0.40432598001437015
174_1_7,174,7,1,บางบอน 4,13.641463,100.375771,175_1_7,175,บางบอน 5,13.639276,100.373033,0.38298044971307166
175_1_7,175,7,1,บางบอน 5,13.639276,100.373033,176_1_7,176,เลยแยกบางบอน ซอยเอกชัย 133,13.637579,100.371019,0.2880460617883689
176_1_7,176,7,1,เลยแยกบางบอน ซอยเอกชัย 133,13.637579,100.371019,177_1_7,177,สำนักงานเขตบางบอน,13.635417,100.368482,0.36462540870981736
177_1_7,177,7,1,สำนักงานเขตบางบอน,13.635417,100.368482,178_1_7,178,โรงเรียนศึกษานารีวิทยา 1,13.634172,100.367019,0.21013941554570947
178_1_7,178,7,1,โรงเรียนศึกษานารีวิทยา 1,13.634172,100.367019,179_1_7,179,โรงเรียนศึกษานารีวิทยา 2,13.633837,100.366623,0.05673423723447155
179_1_7,179,7,1,โรงเรียนศึกษานารีวิทยา 2,13.633837,100.366623,180_1_7,180,หมู่บ้านนาราวัลย์,13.632621,100.365196,0.20508915511331344
180_1_7,180,7,1,หมู่บ้านนาราวัลย์,13.632621,100.365196,181_1_7,181,บ.43,13.631705,100.364121,0.15449643952376654
181_1_7,181,7,1,บ.43,13.631705,100.364121,182_1_7,182,สุภัทรพันธุ์ 1,13.630063,100.362223,0.2745973522697674
182_1_7,182,7,1,สุภัทรพันธุ์ 1,13.630063,100.362223,183_1_7,183,อบต.บางน้ำจืด,13.624725,100.3559,0.9050969394793732
183_1_7,183,7,1,อบต.บางน้ำจืด,13.624725,100.3559,184_1_7,184,ตรวจคนเข้าเมือง,13.623414,100.354309,0.22541481004969025
184_1_7,184,7,1,ตรวจคนเข้าเมือง,13.623414,100.354309,185_1_7,185,วัดโพธิ์แจ้,13.621816,100.352515,0.262982600791977
185_1_7,185,7,1,วัดโพธิ์แจ้,13.621816,100.352515,186_1_7,186,ตลาดโพธิ์แจ้,13.6203,100.350766,0.2532610618197087
186_1_7,186,7,1,ตลาดโพธิ์แจ้,13.6203,100.350766,187_1_7,187,ซอยตลับทอง,13.615731,100.347308,0.6306883594528996
187_1_7,187,7,1,ซอยตลับทอง,13.615731,100.347308,188_1_7,188,โกลเด้นท์เพลส,13.61419,100.346119,0.2141784590182813
188_1_7,188,7,1,โกลเด้นท์เพลส,13.61419,100.346119,189_1_7,189,วิเศษสุขนคร,13.611599,100.34419,0.3556186199690611
189_1_7,189,7,1,วิเศษสุขนคร,13.611599,100.34419,190_1_7,190,ตรงข้ามตลาดรุ่งนิรันดร์,13.606719,100.340797,0.6549132292732079
190_1_7,190,7,1,ตรงข้ามตลาดรุ่งนิรันดร์,13.606719,100.340797,191_1_7,191,หมื่นทรัพย์แลนด์,13.602991,100.33823,0.49880404314676835
191_1_7,191,7,1,หมื่นทรัพย์แลนด์,13.602991,100.33823,192_1_7,192,ตรงข้าม อบต.คอกกระบือ,13.599964,100.336104,0.4075356951982463
192_1_7,192,7,1,ตรงข้าม อบต.คอกกระบือ,13.599964,100.336104,193_1_7,193,หมู่บ้านเบญจวรรณ,13.598173,100.334861,0.24022512733515153
193_1_7,193,7,1,หมู่บ้านเบญจวรรณ,13.598173,100.334861,194_1_7,194,คลองสี่วาพาสวัสดิ์,13.595373,100.332064,0.43395735852360784
194_1_7,194,7,1,คลองสี่วาพาสวัสดิ์,13.595373,100.332064,195_1_7,195,วัดราษฎร์รังสรรค์,13.59367,100.330504,0.2535477725563511
0_0_8,0,8,0,แฮปปี้แลนด์,13.778132,100.644608,1_0_8,1,ซอย นวมินทร์10การเคหะแห่งชาติ,13.775695,100.645279,0.2805039655023736
1_0_8,1,8,0,ซอย นวมินทร์10การเคหะแห่งชาติ,13.775695,100.645279,2_0_8,2,เคหะคลองจั่น,13.774333,100.645933,0.16710751772708182
2_0_8,2,8,0,เคหะคลองจั่น,13.774333,100.645933,3_0_8,3,ตรงข้ามโรงเรียนบ้านบางกะปิ,13.771679,100.647383,0.33408563398783625
3_0_8,3,8,0,ตรงข้ามโรงเรียนบ้านบางกะปิ,13.771679,100.647383,4_0_8,4,เคหะคลองจั่น (แฟลต23),13.770226,100.647485,0.16194133307895578
4_0_8,4,8,0,เคหะคลองจั่น (แฟลต23),13.770226,100.647485,5_0_8,5,เดอะมอลล์บางกะปิ ,13.767189,100.642827,0.605898072580175
5_0_8,5,8,0,เดอะมอลล์บางกะปิ ,13.767189,100.642827,6_0_8,6,แม็คโครบางกะปิ,13.768639,100.640178,0.3283971083575469
6_0_8,6,8,0,แม็คโครบางกะปิ,13.768639,100.640178,7_0_8,7,"ลาดพร้าว 142,140",13.769573,100.638681,0.19215869503145686
7_0_8,7,8,0,"ลาดพร้าว 142,140",13.769573,100.638681,8_0_8,8,โรงพยาบาลเวชธานี (ลาดพร้าว136),13.770572,100.636878,0.22417930481288817
8_0_8,8,8,0,โรงพยาบาลเวชธานี (ลาดพร้าว136),13.770572,100.636878,9_0_8,9,วัดกลาง,13.77178,100.634666,0.27406668017620456
9_0_8,9,8,0,วัดกลาง,13.77178,100.634666,10_0_8,10,ลาดพร้าว 130 (ซอย มหาดไทย2),13.773151,100.632303,0.2972659803730596
10_0_8,10,8,0,ลาดพร้าว 130 (ซอย มหาดไทย2),13.773151,100.632303,11_0_8,11,ลาดพร้าว 101 ,13.774588,100.629716,0.3218542031509209
11_0_8,11,8,0,ลาดพร้าว 101 ,13.774588,100.629716,12_0_8,12,ลาดพร้าว 126 ,13.775803,100.62752,0.2729426780930395
12_0_8,12,8,0,ลาดพร้าว 126 ,13.775803,100.62752,13_0_8,13,ลาดพร้าว 122 (ซอย มหาดไทย 1),13.777237,100.624954,0.31971824980601293
13_0_8,13,8,0,ลาดพร้าว 122 (ซอย มหาดไทย 1),13.777237,100.624954,14_0_8,14,ตรงข้ามโรงพยาบาลลาดพร้าว ,13.778625,100.622467,0.3097710026736242
14_0_8,14,8,0,ตรงข้ามโรงพยาบาลลาดพร้าว ,13.778625,100.622467,15_0_8,15,"ลาดพร้าว 87,112,โรงเรียนบางกอกศึกษา",13.780484,100.619146,0.4139560483992268
15_0_8,15,8,0,"ลาดพร้าว 87,112,โรงเรียนบางกอกศึกษา",13.780484,100.619146,16_0_8,16,สำนักงานเขตวังทองหลาง ,13.782669,100.615259,0.4850136288040671
16_0_8,16,8,0,สำนักงานเขตวังทองหลาง ,13.782669,100.615259,17_0_8,17,บิ๊กซีลาดพร้าว ,13.784395,100.61215,0.386732567186751
17_0_8,17,8,0,บิ๊กซีลาดพร้าว ,13.784395,100.61215,18_0_8,18,ลาดพร้าว 71,13.785307,100.610521,0.20305552958875905
18_0_8,18,8,0,ลาดพร้าว 71,13.785307,100.610521,19_0_8,19,ลาดพร้าว 67/1 (ลาดพร้าว80) ,13.787415,100.606742,0.47062554796388023
19_0_8,19,8,0,ลาดพร้าว 67/1 (ลาดพร้าว80) ,13.787415,100.606742,20_0_8,20,ลาดพร้าว 78,13.788683,100.604461,0.2838248798028678
20_0_8,20,8,0,ลาดพร้าว 78,13.788683,100.604461,21_0_8,21,ลาดพร้าว 57 (กรมแผนที่ทหาร),13.789883,100.602317,0.2672286889535454
21_0_8,21,8,0,ลาดพร้าว 57 (กรมแผนที่ทหาร),13.789883,100.602317,22_0_8,22,ตลาดโชคชัย 4 ,13.790915,100.600483,0.2288957956788049
22_0_8,22,8,0,ตลาดโชคชัย 4 ,13.790915,100.600483,23_0_8,23,ตลาดสะพาน 2 ,13.792825,100.59707,0.4253791215428909
23_0_8,23,8,0,ตลาดสะพาน 2 ,13.792825,100.59707,24_0_8,24,ตลาดโชคชัย 4,13.793955,100.595045,0.2522048481160905
24_0_8,24,8,0,ตลาดโชคชัย 4,13.793955,100.595045,25_0_8,25,ตลาดสะพาน 2,13.796377,100.590688,0.5421268779160106
25_0_8,25,8,0,ตลาดสะพาน 2,13.796377,100.590688,26_0_8,26,โรงเรียนพิบูลย์อุปถัมภ์,13.797881,100.588017,0.3334086202980686
26_0_8,26,8,0,โรงเรียนพิบูลย์อุปถัมภ์,13.797881,100.588017,27_0_8,27,แยกภาวนา (ลาดพร้าว41),13.800297,100.583752,0.5331842965796878
27_0_8,27,8,0,แยกภาวนา (ลาดพร้าว41),13.800297,100.583752,28_0_8,28,ลาดพร้าว 42,13.801944,100.580756,0.3717608174932942
28_0_8,28,8,0,ลาดพร้าว 42,13.801944,100.580756,29_0_8,29,ลาดพร้าว 34 (หมู่บ้านกลางเมือง),13.803917,100.577229,0.4395276073778473
29_0_8,29,8,0,ลาดพร้าว 34 (หมู่บ้านกลางเมือง),13.803917,100.577229,30_0_8,30,แยกรัชดา-ลาดพร้าว (ใต้ดินทางออก1),13.806129,100.573254,0.49470996315797483
30_0_8,30,8,0,แยกรัชดา-ลาดพร้าว (ใต้ดินทางออก1),13.806129,100.573254,31_0_8,31,"ลาดพร้าว 22 (ใต้ดินทางออก2,3)",13.807435,100.570916,0.291249224155503
31_0_8,31,8,0,"ลาดพร้าว 22 (ใต้ดินทางออก2,3)",13.807435,100.570916,32_0_8,32,บิ๊กซีเอ็กซ์ตร้าลาดพร้าว (โรงเรียนปานะพันธ์),13.809256,100.567675,0.40432392070483514
32_0_8,32,8,0,บิ๊กซีเอ็กซ์ตร้าลาดพร้าว (โรงเรียนปานะพันธ์),13.809256,100.567675,33_0_8,33,บ้านพร้อมพันธ์,13.810076,100.566195,0.18399313006595563
33_0_8,33,8,0,บ้านพร้อมพันธ์,13.810076,100.566195,34_0_8,34,ยูเนี่ยนมอลล์,13.811044,100.564461,0.21597146837742948
34_0_8,34,8,0,ยูเนี่ยนมอลล์,13.811044,100.564461,35_0_8,35,ตรงข้ามยูเนี่ยนมอลล์,13.811928,100.562863,0.19858577248776194
35_0_8,35,8,0,ตรงข้ามยูเนี่ยนมอลล์,13.811928,100.562863,36_0_8,36,ห้าแยกลาดพร้าว ปากทางลาดพร้าว,13.812964,100.561054,0.22677357372631166
36_0_8,36,8,0,ห้าแยกลาดพร้าว ปากทางลาดพร้าว,13.812964,100.561054,37_0_8,37,ธนาคารทหารไทย,13.808641,100.55753,0.613078702025623
37_0_8,37,8,0,ธนาคารทหารไทย,13.808641,100.55753,38_0_8,38,BTS หมอชิต,13.802318,100.553783,0.8111962506586586
38_0_8,38,8,0,BTS หมอชิต,13.802318,100.553783,39_0_8,39,ขนส่งหมอชิต สถาบันการบินพลเรือน,13.800203,100.552559,0.2697741590426697
39_0_8,39,8,0,ขนส่งหมอชิต สถาบันการบินพลเรือน,13.800203,100.552559,40_0_8,40,แยกกำแพงเพชร,13.797099,100.551049,0.3817276203661064
40_0_8,40,8,0,แยกกำแพงเพชร,13.797099,100.551049,41_0_8,41,วัดไผ่ตัน,13.794587,100.550102,0.2974533147477317
41_0_8,41,8,0,วัดไผ่ตัน,13.794587,100.550102,42_0_8,42,บิ้กซีสะพานควาย ทางออก2,13.793023,100.549542,0.18412309986776582
42_0_8,42,8,0,บิ้กซีสะพานควาย ทางออก2,13.793023,100.549542,43_0_8,43,สถานีตำรวจนครบาลบางซื่อ,13.78629,100.547134,0.7925501027699493
43_0_8,43,8,0,สถานีตำรวจนครบาลบางซื่อ,13.78629,100.547134,44_0_8,44,ซอยสายลม กองบัญชาการตำรวจตระเวนชายแดน,13.783952,100.546282,0.2757753590133586
44_0_8,44,8,0,ซอยสายลม กองบัญชาการตำรวจตระเวนชายแดน,13.783952,100.546282,45_0_8,45,ซอยอารีย์,13.779789,100.544813,0.48933426984601364
45_0_8,45,8,0,ซอยอารีย์,13.779789,100.544813,46_0_8,46,ซอยราชครู,13.77664,100.543626,0.3728803813876178
46_0_8,46,8,0,ซอยราชครู,13.77664,100.543626,47_0_8,47,ซอยพหลโยธิน 2,13.774597,100.542861,0.24172792511957378
47_0_8,47,8,0,ซอยพหลโยธิน 2,13.774597,100.542861,48_0_8,48,สนามเป้า,13.772921,100.542315,0.19546894556526243
48_0_8,48,8,0,สนามเป้า,13.772921,100.542315,49_0_8,49,"ททบ.5,โรงพยาบาลพญาไท 2",13.769785,100.541158,0.3704191256952507
49_0_8,49,8,0,"ททบ.5,โรงพยาบาลพญาไท 2",13.769785,100.541158,50_0_8,50,ซอยลือชา,13.767323,100.539782,0.31149609433941966
50_0_8,50,8,0,ซอยลือชา,13.767323,100.539782,51_0_8,51,อนุสาวรีย์ชัยสมรภูมิ,13.764596,100.537482,0.39198367500532655
51_0_8,51,8,0,อนุสาวรีย์ชัยสมรภูมิ,13.764596,100.537482,52_0_8,52,โรงพยาบาลเด็ก,13.766234,100.535112,0.3141511810669393
52_0_8,52,8,0,โรงพยาบาลเด็ก,13.766234,100.535112,53_0_8,53,โรงพยาบาลพระมงกุฎเกล้า,13.76772,100.531802,0.3938221635025507
53_0_8,53,8,0,โรงพยาบาลพระมงกุฎเกล้า,13.76772,100.531802,54_0_8,54,โรงพยาบาลรามาธิบดี,13.766799,100.527941,0.42938096761762307
54_0_8,54,8,0,โรงพยาบาลรามาธิบดี,13.766799,100.527941,55_0_8,55,กระทรวงการต่างประเทศ,13.762277,100.524349,0.6350828536874944
55_0_8,55,8,0,กระทรวงการต่างประเทศ,13.762277,100.524349,56_0_8,56,แยกเสาวนีย์,13.761813,100.522516,0.2045818397846443
56_0_8,56,8,0,แยกเสาวนีย์,13.761813,100.522516,57_0_8,57,เลียบทางรถไฟยมราช,13.758467,100.521166,0.3996077975960074
57_0_8,57,8,0,เลียบทางรถไฟยมราช,13.758467,100.521166,58_0_8,58,"สะพานขาว,บ้านมนังคศิลา,โรงพยาบาลมิชชั่น,มหานาค",13.756857,100.519043,0.29090433770327256
58_0_8,58,8,0,"สะพานขาว,บ้านมนังคศิลา,โรงพยาบาลมิชชั่น,มหานาค",13.756857,100.519043,59_0_8,59,สำนักงานสภาพัฒนาการเศรษฐกิจและสังคมแห่งชาติ (สภาพัฒน์),13.756502,100.514238,0.520464225855539
59_0_8,59,8,0,สำนักงานสภาพัฒนาการเศรษฐกิจและสังคมแห่งชาติ (สภาพัฒน์),13.756502,100.514238,60_0_8,60,หลานหลวง 8,13.756405,100.511475,0.29861359087455736
60_0_8,60,8,0,หลานหลวง 8,13.756405,100.511475,61_0_8,61,ตรงข้ามวัดสระเกศราชวรมหาวิหาร (ภูเขาทอง),13.753177,100.509319,0.42785540306800146
61_0_8,61,8,0,ตรงข้ามวัดสระเกศราชวรมหาวิหาร (ภูเขาทอง),13.753177,100.509319,62_0_8,62,แม้นศรี,13.751107,100.50847,0.24776683020126
62_0_8,62,8,0,แม้นศรี,13.751107,100.50847,63_0_8,63,ตรงข้ามชุมชนบ้านดอกไม้,13.748893,100.507427,0.2707359547444044
63_0_8,63,8,0,ตรงข้ามชุมชนบ้านดอกไม้,13.748893,100.507427,64_0_8,64,วัดตึก,13.744707,100.505014,0.5334618937169827
64_0_8,64,8,0,วัดตึก,13.744707,100.505014,65_0_8,65,ตลาดเยาวราช,13.742986,100.503652,0.24137693701555762
65_0_8,65,8,0,ตลาดเยาวราช,13.742986,100.503652,66_0_8,66,สะพานพุทธ,13.740096,100.49806,0.684170404741639
67_1_8,67,8,1,สะพานพุทธ,13.740102,100.498043,68_1_8,68,ปากคลองตลาด,13.742252,100.49628,0.3056403528035494
68_1_8,68,8,1,ปากคลองตลาด,13.742252,100.49628,69_1_8,69,เลียบคลองหลอด,13.743914,100.496189,0.18506716617059318
69_1_8,69,8,1,เลียบคลองหลอด,13.743914,100.496189,70_1_8,70,MRT สามยอด,13.747101,100.501681,0.6909861708491511
70_1_8,70,8,1,MRT สามยอด,13.747101,100.501681,71_1_8,71,คลองถม ฝั่งวรจักร,13.746348,100.506066,0.4809672375348491
71_1_8,71,8,1,คลองถม ฝั่งวรจักร,13.746348,100.506066,72_1_8,72,ตลาดวรจักร,13.749455,100.507498,0.37852455750817365
72_1_8,72,8,1,ตลาดวรจักร,13.749455,100.507498,73_1_8,73,แม้นศรี,13.751128,100.508259,0.20337826998012998
73_1_8,73,8,1,แม้นศรี,13.751128,100.508259,74_1_8,74,สำเพ็ง,13.752838,100.50902,0.20714795761584956
74_1_8,74,8,1,สำเพ็ง,13.752838,100.50902,75_1_8,75,หลานหลวง,13.756584,100.511628,0.5028379727962878
75_1_8,75,8,1,หลานหลวง,13.756584,100.511628,76_1_8,76,สำนักงานสภาพัฒนาการเศรษฐกิจและสังคมแห่งชาติ (สภาพัฒน์),13.756658,100.514614,0.32260864619745994
76_1_8,76,8,1,สำนักงานสภาพัฒนาการเศรษฐกิจและสังคมแห่งชาติ (สภาพัฒน์),13.756658,100.514614,77_1_8,77,"สะพานขาว,บ้านมนังคศิลา,โรงพยาบาลมิชชั่น,มหานาค",13.75704,100.518958,0.4710932404978067
77_1_8,77,8,1,"สะพานขาว,บ้านมนังคศิลา,โรงพยาบาลมิชชั่น,มหานาค",13.75704,100.518958,78_1_8,78,สวรรคโลก 1,13.758563,100.521027,0.2803828302968806
78_1_8,78,8,1,สวรรคโลก 1,13.758563,100.521027,79_1_8,79,สวรรคโลก 2,13.761873,100.522372,0.3956848593842537
79_1_8,79,8,1,สวรรคโลก 2,13.761873,100.522372,80_1_8,80,ตรงข้ามกรมทางหลวง,13.762647,100.524267,0.22202462792704414
80_1_8,80,8,1,ตรงข้ามกรมทางหลวง,13.762647,100.524267,81_1_8,81,มหาวิทยาลัยมหิดล,13.763718,100.526335,0.2531145423680347
81_1_8,81,8,1,มหาวิทยาลัยมหิดล,13.763718,100.526335,82_1_8,82,โรงพยาบาลรามาธิบดี,13.767008,100.527651,0.39247085372737855
82_1_8,82,8,1,โรงพยาบาลรามาธิบดี,13.767008,100.527651,83_1_8,83,วิทยาลัยแพทยศาสตร์พระมงกุฎเกล้า,13.768485,100.530622,0.36045749355346546
83_1_8,83,8,1,วิทยาลัยแพทยศาสตร์พระมงกุฎเกล้า,13.768485,100.530622,84_1_8,84,โรงพยาบาลพระมงกุฎเกล้า,13.767358,100.533114,0.2968813035922463
84_1_8,84,8,1,โรงพยาบาลพระมงกุฎเกล้า,13.767358,100.533114,85_1_8,85,ตรงข้ามโรงพยาบาลเด็ก,13.766392,100.535256,0.2550582154722848
85_1_8,85,8,1,ตรงข้ามโรงพยาบาลเด็ก,13.766392,100.535256,86_1_8,86,อนุสาวรีย์ชัยสมรภูมิ,13.765648,100.537951,0.30259123034562263
86_1_8,86,8,1,อนุสาวรีย์ชัยสมรภูมิ,13.765648,100.537951,87_1_8,87,ลือชา,13.767801,100.539739,0.3075763395299874
87_1_8,87,8,1,ลือชา,13.767801,100.539739,88_1_8,88,"ททบ.5,โรงพยาบาลพญาไท 2",13.770291,100.541113,0.31413366331101855
88_1_8,88,8,1,"ททบ.5,โรงพยาบาลพญาไท 2",13.770291,100.541113,89_1_8,89,สนามเป้า,13.771948,100.541707,0.1950985123169866
89_1_8,89,8,1,สนามเป้า,13.771948,100.541707,90_1_8,90,สนามเป้าทางออก 3,13.773623,100.54228,0.19626282086109614
90_1_8,90,8,1,สนามเป้าทางออก 3,13.773623,100.54228,91_1_8,91,ซอยราชครู,13.776604,100.543389,0.3524460197262555
91_1_8,91,8,1,ซอยราชครู,13.776604,100.543389,92_1_8,92,BTS อารีย์,13.780038,100.544639,0.4050034031753691
92_1_8,92,8,1,BTS อารีย์,13.780038,100.544639,93_1_8,93,กองบัญชาการตำรวจตระเวนชายแดน,13.784253,100.54613,0.49557443712445903
93_1_8,93,8,1,กองบัญชาการตำรวจตระเวนชายแดน,13.784253,100.54613,94_1_8,94,สถานีตำรวจนครบาลบางซื่อ,13.786893,100.54708,0.31096540658578403
94_1_8,94,8,1,สถานีตำรวจนครบาลบางซื่อ,13.786893,100.54708,95_1_8,95,BTS สะพานควาย,13.793025,100.549294,0.7225507117922669
95_1_8,95,8,1,BTS สะพานควาย,13.793025,100.549294,96_1_8,96,วัดไผ่ตัน,13.794648,100.54989,0.19160249273185828
96_1_8,96,8,1,วัดไผ่ตัน,13.794648,100.54989,97_1_8,97,จตุจักร ป้ายใหญ่,13.802835,100.553577,0.993609914780756
97_1_8,97,8,1,จตุจักร ป้ายใหญ่,13.802835,100.553577,98_1_8,98,สวนจตุจักร,13.803708,100.554064,0.11040246501675029
98_1_8,98,8,1,สวนจตุจักร,13.803708,100.554064,99_1_8,99,ตรงข้ามธนาคารทหารไทย,13.80889,100.557191,0.6678585830364991
99_1_8,99,8,1,ตรงข้ามธนาคารทหารไทย,13.80889,100.557191,100_1_8,100,ห้างสรรพสินค้าเซ็นทรัล,13.814899,100.560486,0.7569942525773635
100_1_8,100,8,1,ห้างสรรพสินค้าเซ็นทรัล,13.814899,100.560486,101_1_8,101,ยูเนี่ยนมอลล์,13.812001,100.563196,0.4352800468099736
101_1_8,101,8,1,ยูเนี่ยนมอลล์,13.812001,100.563196,102_1_8,102,บ้านพร้อมพันธ์,13.810988,100.565023,0.22717168281195155
102_1_8,102,8,1,บ้านพร้อมพันธ์,13.810988,100.565023,103_1_8,103,บิ๊กซี,13.80913,100.568362,0.41554518878089414
103_1_8,103,8,1,บิ๊กซี,13.80913,100.568362,104_1_8,104,จอมพล,13.808167,100.570095,0.2156025224775915
104_1_8,104,8,1,จอมพล,13.808167,100.570095,105_1_8,105,ลาดพร้าว ซอย 22,13.807072,100.572118,0.2500883464260191
105_1_8,105,8,1,ลาดพร้าว ซอย 22,13.807072,100.572118,106_1_8,106,ผังเมือง,13.804134,100.577352,0.6528065219093021
106_1_8,106,8,1,ผังเมือง,13.804134,100.577352,107_1_8,107,ดับเพลิง,13.802774,100.579769,0.3016424023700908
107_1_8,107,8,1,ดับเพลิง,13.802774,100.579769,108_1_8,108,ลาดพร้าว ซอย 42,13.801813,100.581527,0.21784502610670173
108_1_8,108,8,1,ลาดพร้าว ซอย 42,13.801813,100.581527,109_1_8,109,แยกภาวนา,13.800138,100.584491,0.3703138997394801
109_1_8,109,8,1,แยกภาวนา,13.800138,100.584491,110_1_8,110,ตรงข้ามโรงเรียนพิบูลอุปถัมภ์,13.797979,100.588345,0.4804545175290082
110_1_8,110,8,1,ตรงข้ามโรงเรียนพิบูลอุปถัมภ์,13.797979,100.588345,111_1_8,111,ลาดพร้าว 51,13.796062,100.591761,0.4260416992784909
111_1_8,111,8,1,ลาดพร้าว 51,13.796062,100.591761,112_1_8,112,สถานีตำรวจนครบาลโชคชัย,13.79539,100.592948,0.14837061493315604
112_1_8,112,8,1,สถานีตำรวจนครบาลโชคชัย,13.79539,100.592948,113_1_8,113,ตลาดโชคชัย 4,13.794201,100.595097,0.26708431015744777
113_1_8,113,8,1,ตลาดโชคชัย 4,13.794201,100.595097,114_1_8,114,ลาดพร้าว ซอย 57,13.792951,100.597336,0.2788897273394011
114_1_8,114,8,1,ลาดพร้าว ซอย 57,13.792951,100.597336,115_1_8,115,คุรุสภา,13.79123,100.600416,0.383728655231202
115_1_8,115,8,1,คุรุสภา,13.79123,100.600416,116_1_8,116,ไปรษณีย์,13.789936,100.602717,0.28713679509830337
116_1_8,116,8,1,ไปรษณีย์,13.789936,100.602717,117_1_8,117,ตรงข้ามลาดพร้าว ซอย 80,13.788789,100.60481,0.2595248516009888
117_1_8,117,8,1,ตรงข้ามลาดพร้าว ซอย 80,13.788789,100.60481,118_1_8,118,ลาดพร้าว ซอย 67,13.787808,100.606536,0.21596490007620134
118_1_8,118,8,1,ลาดพร้าว ซอย 67,13.787808,100.606536,119_1_8,119,ปั๊มเติมน้ำมันเชล,13.785559,100.610547,0.5001605185762931
119_1_8,119,8,1,ปั๊มเติมน้ำมันเชล,13.785559,100.610547,120_1_8,120,บิ๊กซี ซอย 83,13.784499,100.612442,0.2361612868314754
120_1_8,120,8,1,บิ๊กซี ซอย 83,13.784499,100.612442,121_1_8,121,ตรงข้าม ลาดพร้าว ซอย 106,13.783006,100.615112,0.332717507438542
121_1_8,121,8,1,ตรงข้าม ลาดพร้าว ซอย 106,13.783006,100.615112,122_1_8,122,ลาดพร้าว ซอย 89,13.780875,100.618932,0.47574550473911187
122_1_8,122,8,1,ลาดพร้าว ซอย 89,13.780875,100.618932,123_1_8,123,โรงพยาบาลลาดพร้าว 1,13.780002,100.620514,0.19649902608684108
123_1_8,123,8,1,โรงพยาบาลลาดพร้าว 1,13.780002,100.620514,124_1_8,124,โรงพยาบาลลาดพร้าว 2,13.77837,100.623433,0.36373853129837624
124_1_8,124,8,1,โรงพยาบาลลาดพร้าว 2,13.77837,100.623433,125_1_8,125,ปั๊มเติมน้ำมันเอสโซ่,13.777339,100.625249,0.2271689492818596
125_1_8,125,8,1,ปั๊มเติมน้ำมันเอสโซ่,13.777339,100.625249,126_1_8,126,ตรงข้าม ลาดพร้าว ซอย 128,13.77607,100.627548,0.28557894444610105
126_1_8,126,8,1,ตรงข้าม ลาดพร้าว ซอย 128,13.77607,100.627548,127_1_8,127,ลาดพร้าว ซอย 101,13.774491,100.630312,0.3463106635273574
127_1_8,127,8,1,ลาดพร้าว ซอย 101,13.774491,100.630312,128_1_8,128,ลาดพร้าว ซอย 101/2,13.773877,100.631478,0.14324216847192775
128_1_8,128,8,1,ลาดพร้าว ซอย 101/2,13.773877,100.631478,129_1_8,129,ลาดพร้าว ซอย 105,13.772403,100.634126,0.3296162891073875
129_1_8,129,8,1,ลาดพร้าว ซอย 105,13.772403,100.634126,130_1_8,130,ตรงข้ามโตโยต้า,13.770912,100.636776,0.3307487663361111
130_1_8,130,8,1,ตรงข้ามโตโยต้า,13.770912,100.636776,131_1_8,131,ลาดพร้าว ซอย 111/1,13.769907,100.638564,0.2231068162281375
131_1_8,131,8,1,ลาดพร้าว ซอย 111/1,13.769907,100.638564,132_1_8,132,แฮปปี้แลนด์,13.76871,100.641807,0.37468011390867556
0_0_28,0,28,0,มโนราห์,13.7896,100.427,1_0_28,1,บรมราชชนนี56,13.7813,100.428,0.929214556634147
1_0_28,1,28,0,บรมราชชนนี56,13.7813,100.428,2_0_28,2,ตลิ่งชัน,13.7809,100.432,0.43425957246537683
2_0_28,2,28,0,ตลิ่งชัน,13.7809,100.432,3_0_28,3,ศาลแขวง,13.7803,100.439,0.7588975890268276
3_0_28,3,28,0,ศาลแขวง,13.7803,100.439,4_0_28,4,วัดทอง,13.7805,100.443,0.43254916158990664
4_0_28,4,28,0,วัดทอง,13.7805,100.443,5_0_28,5,ตรงข้ามสน.ตลิ่งชัน,13.781,100.445,0.2230291221356992
5_0_28,5,28,0,ตรงข้ามสน.ตลิ่งชัน,13.781,100.445,6_0_28,6,สนามกอล์ฟ,13.7833,100.453,0.9010065727305294
6_0_28,6,28,0,สนามกอล์ฟ,13.7833,100.453,7_0_28,7,โรงปูน,13.7845,100.457,0.4521097449350879
7_0_28,7,28,0,โรงปูน,13.7845,100.457,8_0_28,8,ชัยพฤกษ์,13.7861,100.462,0.5685151488891226
8_0_28,8,28,0,ชัยพฤกษ์,13.7861,100.462,9_0_28,9,สายใต้เก่า,13.7855,100.471,0.9742131478049081
9_0_28,9,28,0,สายใต้เก่า,13.7855,100.471,10_0_28,10,โรงพยาบาลเจ้าพระยา,13.7839,100.472,0.208122491263644
10_0_28,10,28,0,โรงพยาบาลเจ้าพระยา,13.7839,100.472,11_0_28,11,ฟู้ดแลนด์ ปิ่นเกล้า,13.7818,100.474,0.31808283078132066
11_0_28,11,28,0,ฟู้ดแลนด์ ปิ่นเกล้า,13.7818,100.474,12_0_28,12,ลุมพินี,13.7806,100.475,0.17166039665369875
12_0_28,12,28,0,ลุมพินี,13.7806,100.475,13_0_28,13,เมเจอร์ ปิ่นเกล้า,13.7779,100.478,0.4417032158509978
13_0_28,13,28,0,เมเจอร์ ปิ่นเกล้า,13.7779,100.478,14_0_28,14,โลตัส ปินเกล้า,13.7767,100.479,0.17166153079384394
14_0_28,14,28,0,โลตัส ปินเกล้า,13.7767,100.479,15_0_28,15,สามห้าโบ1,13.775,100.481,0.2870291430687464
15_0_28,15,28,0,สามห้าโบ1,13.775,100.481,16_0_28,16,สามห้าโบ2,13.7747,100.483,0.21855446789786492
16_0_28,16,28,0,สามห้าโบ2,13.7747,100.483,17_0_28,17,ตลาดอินดี้,13.7775,100.485,0.3789313554166668
17_0_28,17,28,0,ตลาดอินดี้,13.7775,100.485,18_0_28,18,พงษ์ทรัพย์ จรัญ57,13.779,100.487,0.2728948719843716
18_0_28,18,28,0,พงษ์ทรัพย์ จรัญ57,13.779,100.487,19_0_28,19,กรมที่ดิน,13.781,100.489,0.31001364127504116
19_0_28,19,28,0,กรมที่ดิน,13.781,100.489,20_0_28,20,ซอยร่วมพัฒนา จรัญ65,13.7827,100.491,0.28702496908794056
20_0_28,20,28,0,ซอยร่วมพัฒนา จรัญ65,13.7827,100.491,21_0_28,21,ตลาดกรุงธน,13.7833,100.498,0.7588898520015394
21_0_28,21,28,0,ตลาดกรุงธน,13.7833,100.498,22_0_28,22,วัชระ แยกซังฮี้,13.7789,100.507,1.088141166862983
22_0_28,22,28,0,วัชระ แยกซังฮี้,13.7789,100.507,23_0_28,23,สวนดุสิต,13.7776,100.51,0.35477103017939526
23_0_28,23,28,0,สวนดุสิต,13.7776,100.51,24_0_28,24,วิมานเมฆ,13.7765,100.513,0.3463072225478702
24_0_28,24,28,0,วิมานเมฆ,13.7765,100.513,25_0_28,25,เขาดิน,13.7744,100.517,0.49105878054986024
25_0_28,25,28,0,เขาดิน,13.7744,100.517,26_0_28,26,สวนจิตรลดา,13.7732,100.52,0.3503932129017322
26_0_28,26,28,0,สวนจิตรลดา,13.7732,100.52,27_0_28,27,ราชวีถี24,13.7717,100.523,0.3644059668675787
27_0_28,27,28,0,ราชวีถี24,13.7717,100.523,28_0_28,28,บ้านราชวิถี,13.7701,100.527,0.4671959061072779
28_0_28,28,28,0,บ้านราชวิถี,13.7701,100.527,29_0_28,29,โรงเรียนคนตาบอด,13.7685,100.531,0.46719863978577747
29_0_28,29,28,0,โรงเรียนคนตาบอด,13.7685,100.531,30_0_28,30,โรงบาลพระมงกุฏ,13.7673,100.533,0.25389102057805957
30_0_28,30,28,0,โรงบาลพระมงกุฏ,13.7673,100.533,31_0_28,31,สถาบันสุขภาพเด็ก,13.7664,100.535,0.23805787730472355
31_0_28,31,28,0,สถาบันสุขภาพเด็ก,13.7664,100.535,32_0_28,32,อนุสาวรีย์ฝั่งราชวิถี,13.7649,100.537,0.2729040868597638
33_1_28,33,28,1,สถาบันสุขภาพแม่และเด็ก,13.7662,100.535,34_1_28,34,โรงเรียนคนตาบอด(สถานีตรงข้ามพยาบาลกองทัพบก),13.7677,100.532,0.36441274346565744
34_1_28,34,28,1,โรงเรียนคนตาบอด(สถานีตรงข้ามพยาบาลกองทัพบก),13.7677,100.532,35_1_28,35,ป้ายสถาบันประสาท,13.7699,100.527,0.5928248333610325
35_1_28,35,28,1,ป้ายสถาบันประสาท,13.7699,100.527,36_1_28,36,ป้ายใกล้ราชวิถี24 (ขากลับ),13.7712,100.524,0.3547807780973148
36_1_28,36,28,1,ป้ายใกล้ราชวิถี24 (ขากลับ),13.7712,100.524,37_1_28,37,สวนจิตรลดา(ขากลับ)1,13.7725,100.521,0.35477913271488387
37_1_28,37,28,1,สวนจิตรลดา(ขากลับ)1,13.7725,100.521,38_1_28,38,สวนจิตรลดา(ขากลับ)2,13.7731,100.52,0.12694358455452395
38_1_28,38,28,1,สวนจิตรลดา(ขากลับ)2,13.7731,100.52,39_1_28,39,ป้ายเขาดิน(ขากลับ),13.7742,100.518,0.24822281044160058
39_1_28,39,28,1,ป้ายเขาดิน(ขากลับ),13.7742,100.518,40_1_28,40,วิมานเมฆ(ขากลับ),13.7762,100.513,0.5839856972550295
40_1_28,40,28,1,วิมานเมฆ(ขากลับ),13.7762,100.513,41_1_28,41,ราชภัฏสวนนันทา(ขากลับ),13.7778,100.51,0.36962218293327237
41_1_28,41,28,1,ราชภัฏสวนนันทา(ขากลับ),13.7778,100.51,42_1_28,42,ซังฮี้วัชิระ,13.7791,100.507,0.3547707769162307
42_1_28,42,28,1,ซังฮี้วัชิระ,13.7791,100.507,43_1_28,43,โรงเรียนชินวร,13.783,100.498,1.0643024522837563
43_1_28,43,28,1,โรงเรียนชินวร,13.783,100.498,44_1_28,44,ตลาดกรุงธน,13.7836,100.496,0.22605540262165844
44_1_28,44,28,1,ตลาดกรุงธน,13.7836,100.496,45_1_28,45,ซอยร่วมพัฒนา(ขากลับ) จรัญ63,13.7828,100.492,0.4410361556922805
45_1_28,45,28,1,ซอยร่วมพัฒนา(ขากลับ) จรัญ63,13.7828,100.492,46_1_28,46,กรมที่ดิน(ขากลับ),13.7816,100.49,0.2538797768615839
46_1_28,46,28,1,กรมที่ดิน(ขากลับ),13.7816,100.49,47_1_28,47,ตลาดธงทรัพย์(ขากลับ) จรัญ44,13.7788,100.487,0.44933422824811897
47_1_28,47,28,1,ตลาดธงทรัพย์(ขากลับ) จรัญ44,13.7788,100.487,48_1_28,48,ตลาดอินดี้(ขากลับ),13.7774,100.485,0.2662442875613083
48_1_28,48,28,1,ตลาดอินดี้(ขากลับ),13.7774,100.485,49_1_28,49,สามห้าโบ(1) จรัญ40,13.7751,100.484,0.27761553641110176
49_1_28,49,28,1,สามห้าโบ(1) จรัญ40,13.7751,100.484,50_1_28,50,สามห้าโบ(2) เส้นบรม,13.775,100.48,0.4321300652035526
50_1_28,50,28,1,สามห้าโบ(2) เส้นบรม,13.775,100.48,51_1_28,51,โลตัสสะพานกรมทางหลวง,13.777,100.478,0.31001621744517366
51_1_28,51,28,1,โลตัสสะพานกรมทางหลวง,13.777,100.478,52_1_28,52,เซ็นทรัลปิ่นเกล้า(ขากลับ),13.7789,100.476,0.3021377084702534
52_1_28,52,28,1,เซ็นทรัลปิ่นเกล้า(ขากลับ),13.7789,100.476,53_1_28,53,เดอะเซ็นต์(ขากลับ),13.7806,100.475,0.21770550875039638
53_1_28,53,28,1,เดอะเซ็นต์(ขากลับ),13.7806,100.475,54_1_28,54,โรงพยาบาลเจ้าพระยา(ขากลับ),13.7838,100.472,0.4812211543821773
54_1_28,54,28,1,โรงพยาบาลเจ้าพระยา(ขากลับ),13.7838,100.472,55_1_28,55,สายใต้เก่า(ขากลับ),13.7857,100.47,0.3021332137583168
55_1_28,55,28,1,สายใต้เก่า(ขากลับ),13.7857,100.47,56_1_28,56,ชัยพฤกษ์(ขากลับ),13.7854,100.462,0.8645789099297491
56_1_28,56,28,1,ชัยพฤกษ์(ขากลับ),13.7854,100.462,57_1_28,57,ศูนย์มนุษยวิทยา,13.7841,100.457,0.5589757567751457
57_1_28,57,28,1,ศูนย์มนุษยวิทยา,13.7841,100.457,58_1_28,58,สนามกอล์ฟ(ขากลับ),13.7831,100.454,0.3425292702097627
58_1_28,58,28,1,สนามกอล์ฟ(ขากลับ),13.7831,100.454,59_1_28,59,สน.ตลิ่งชั่น(ขากลับ),13.7804,100.445,1.0172554741441253
59_1_28,59,28,1,สน.ตลิ่งชั่น(ขากลับ),13.7804,100.445,60_1_28,60,วัดทอง,13.7798,100.443,0.2260582296944786
60_1_28,60,28,1,วัดทอง,13.7798,100.443,61_1_28,61,ศาลแขวงดุสิต,13.7797,100.439,0.43212137904999814
61_1_28,61,28,1,ศาลแขวงดุสิต,13.7797,100.439,62_1_28,62,ป้ายหน้าหมู่บ้านนันทวัน,13.7799,100.438,0.11026057849829266
62_1_28,62,28,1,ป้ายหน้าหมู่บ้านนันทวัน,13.7799,100.438,63_1_28,63,วัดมะกอกตรงข้ามไปรษณีย์,13.7805,100.431,0.7588988784056112
63_1_28,63,28,1,วัดมะกอกตรงข้ามไปรษณีย์,13.7805,100.431,64_1_28,64,หน้าหมู่บ้านคริสตจักรเปี่ยมรัก,13.7809,100.427,0.4342603082504965
0_0_35,0,35,0,แปดสอง,13.666487,100.515707,1_0_35,1,วัดสน2,13.668905,100.512754,0.41724118605529503
1_0_35,1,35,0,วัดสน2,13.668905,100.512754,2_0_35,2,วัดสน1/กม.9,13.670254,100.510581,0.27860972659529865
2_0_35,2,35,0,วัดสน1/กม.9,13.670254,100.510581,3_0_35,3,วัดสารอด,13.674428,100.503958,0.8529143800781722
3_0_35,3,35,0,วัดสารอด,13.674428,100.503958,4_0_35,4,ตลาดบางประกอก,13.676871,100.500075,0.4997979063218399
4_0_35,4,35,0,ตลาดบางประกอก,13.676871,100.500075,5_0_35,5,ซอยอนามัย,13.67814,100.498061,0.2593433748059487
5_0_35,5,35,0,ซอยอนามัย,13.67814,100.498061,6_0_35,6,ซอยอนามัย,13.679663,100.495621,0.3133287972917121
6_0_35,6,35,0,ซอยอนามัย,13.679663,100.495621,7_0_35,7,วัดบางประกอก,13.680582,100.494299,0.17562083956107227
7_0_35,7,35,0,วัดบางประกอก,13.680582,100.494299,8_0_35,8,Big C บางประกอก,13.682545,100.49153,0.3703272657230255
8_0_35,8,35,0,Big C บางประกอก,13.682545,100.49153,9_0_35,9,บางประแก้ว,13.68643,100.486015,0.7359573583371205
9_0_35,9,35,0,บางประแก้ว,13.68643,100.486015,10_0_35,10,ตลาดวัดนาคนิมิต,13.68913,100.482219,0.5082564422027043
10_0_35,10,35,0,ตลาดวัดนาคนิมิต,13.68913,100.482219,11_0_35,11,ตลาดอินดี้ดาวคะนอง,13.690693,100.481118,0.21060427838455636
11_0_35,11,35,0,ตลาดอินดี้ดาวคะนอง,13.690693,100.481118,12_0_35,12,ตลาดดาวคะนอง,13.696235,100.482602,0.6367558417274205
12_0_35,12,35,0,ตลาดดาวคะนอง,13.696235,100.482602,13_0_35,13,Big C ดาวคะนอง,13.699435,100.483653,0.37350011036147324
13_0_35,13,35,0,Big C ดาวคะนอง,13.699435,100.483653,14_0_35,14,แสงทองโทรทัศน์,13.702019,100.484535,0.3027145797379639
14_0_35,14,35,0,แสงทองโทรทัศน์,13.702019,100.484535,15_0_35,15,แยกบุคคโล,13.704019,100.487115,0.35656774571837796
15_0_35,15,35,0,แยกบุคคโล,13.704019,100.487115,16_0_35,16,ซอยมาตา/ถนนตก,13.69826,100.496255,1.1768762370672103
16_0_35,16,35,0,ซอยมาตา/ถนนตก,13.69826,100.496255,17_0_35,17,แยกถนนตก,13.696611,100.497852,0.25176761584362456
17_0_35,17,35,0,แยกถนนตก,13.696611,100.497852,18_0_35,18,วัดอินทร์บรรจง,13.693472,100.500818,0.4738179380806983
18_0_35,18,35,0,วัดอินทร์บรรจง,13.693472,100.500818,19_0_35,19,เขตบางคอแหลม,13.691526,100.502667,0.29449141323518796
19_0_35,19,35,0,เขตบางคอแหลม,13.691526,100.502667,20_0_35,20,Home Proเก่า /ทรี ออน ทรี พระราม3,13.690531,100.5041,0.19028558106880705
20_0_35,20,35,0,Home Proเก่า /ทรี ออน ทรี พระราม3,13.690531,100.5041,21_0_35,21,โรงแรมมณเฑียร,13.689984,100.50715,0.3350758703235066
21_0_35,21,35,0,โรงแรมมณเฑียร,13.689984,100.50715,22_0_35,22,แยกเจริญราษฏร์,13.689738,100.510604,0.3741575528094359
22_0_35,22,35,0,แยกเจริญราษฏร์,13.689738,100.510604,23_0_35,23,วาโก้,13.688932,100.513866,0.36363177169588196
23_0_35,23,35,0,วาโก้,13.688932,100.513866,24_0_35,24,โฮมโปรใหม่ พระราม3,13.687022,100.518705,0.5642836134502911
24_0_35,24,35,0,โฮมโปรใหม่ พระราม3,13.687022,100.518705,25_0_35,25,ICC,13.684136,100.523372,0.5976731580799898
25_0_35,25,35,0,ICC,13.684136,100.523372,26_0_35,26,โรงเรียนวัดดอกไม้,13.682991,100.524872,0.20608935571580272
26_0_35,26,35,0,โรงเรียนวัดดอกไม้,13.682991,100.524872,27_0_35,27,วัดดอกไม้,13.681506,100.526819,0.2674218092386408
27_0_35,27,35,0,วัดดอกไม้,13.681506,100.526819,28_0_35,28,วัดทองบน / ท่าน้ำสาธุ,13.680127,100.52825,0.21775060564778162
28_0_35,28,35,0,วัดทองบน / ท่าน้ำสาธุ,13.680127,100.52825,29_0_35,29,สาธุ 57,13.680011,100.529859,0.17431502230618146
29_0_35,29,35,0,สาธุ 57,13.680011,100.529859,30_0_35,30,ตลาดนางทราย,13.683572,100.532152,0.46707711335189805
30_0_35,30,35,0,ตลาดนางทราย,13.683572,100.532152,31_0_35,31,สาธุ 49,13.686229,100.532607,0.29950651417230145
31_0_35,31,35,0,สาธุ 49,13.686229,100.532607,32_0_35,32,สาธุ 44,13.689389,100.533923,0.3790504690810235
32_0_35,32,35,0,สาธุ 44,13.689389,100.533923,33_0_35,33,ตลาดรุ่งเจริญ,13.693353,100.533534,0.4427756224330109
33_0_35,33,35,0,ตลาดรุ่งเจริญ,13.693353,100.533534,34_0_35,34,โรงเรียนสารสาสน์พิทยา/วัดโพธิ์แมน,13.698139,100.531668,0.5690808171421552
34_0_35,34,35,0,โรงเรียนสารสาสน์พิทยา/วัดโพธิ์แมน,13.698139,100.531668,35_0_35,35,สาธุ 20,13.700194,100.530856,0.2447649965058657
35_0_35,35,35,0,สาธุ 20,13.700194,100.530856,36_0_35,36,สาธุ 12,13.702413,100.529964,0.2648911028141131
36_0_35,36,35,0,สาธุ 12,13.702413,100.529964,37_0_35,37,โรงเรียนยานนาเวช,13.704411,100.529198,0.2370782079080823
37_0_35,37,35,0,โรงเรียนยานนาเวช,13.704411,100.529198,38_0_35,38,สะพาน3,13.706458,100.526049,0.4093084265471535
38_0_35,38,35,0,สะพาน3,13.706458,100.526049,39_0_35,39,เย็นจิตร,13.706812,100.524523,0.16948554762112492
39_0_35,39,35,0,เย็นจิตร,13.706812,100.524523,40_0_35,40,จันทร์ 37,13.707131,100.522816,0.18778457144283062
40_0_35,40,35,0,จันทร์ 37,13.707131,100.522816,41_0_35,41,สะพาน 2,13.707534,100.520787,0.22372254462872457
41_0_35,41,35,0,สะพาน 2,13.707534,100.520787,42_0_35,42,แจ่มจันทร์/สะพาน 1,13.707869,100.518088,0.293936909857207
42_0_35,42,35,0,แจ่มจันทร์/สะพาน 1,13.707869,100.518088,43_0_35,43,วัดลุ่ม /สะพาน 1,13.708632,100.515372,0.305423183283135
43_0_35,43,35,0,วัดลุ่ม /สะพาน 1,13.708632,100.515372,44_0_35,44,โฟรซีซั่น,13.709263,100.513511,0.21293080450283264
44_0_35,44,35,0,โฟรซีซั่น,13.709263,100.513511,45_0_35,45,องค์การสะพานปลา,13.711643,100.512021,0.3097488916841593
45_0_35,45,35,0,องค์การสะพานปลา,13.711643,100.512021,46_0_35,46,วัดสุทธิวราราม,13.713461,100.512823,0.2199351416323573
46_0_35,46,35,0,วัดสุทธิวราราม,13.713461,100.512823,47_0_35,47,วัดดอน,13.715173,100.513585,0.20740019578642283
47_0_35,47,35,0,วัดดอน,13.715173,100.513585,48_0_35,48,วัดยานนาวา,13.716494,100.514121,0.15788839131786347
48_0_35,48,35,0,วัดยานนาวา,13.716494,100.514121,49_0_35,49,โรบินสันบางรัก,13.720764,100.515969,0.5150609930791751
49_0_35,49,35,0,โรบินสันบางรัก,13.720764,100.515969,50_0_35,50,โรงเรียนอัสสัมชันบางรัก/โอเรียนเต็ล,13.724594,100.516372,0.4280956948046368
50_0_35,50,35,0,โรงเรียนอัสสัมชันบางรัก/โอเรียนเต็ล,13.724594,100.516372,51_0_35,51,ไปรษณีย์กลาง/สน.บางรัก,13.728308,100.515807,0.4174632383066758
51_0_35,51,35,0,ไปรษณีย์กลาง/สน.บางรัก,13.728308,100.515807,52_0_35,52,ตลาดน้อย,13.732741,100.514593,0.5100715595991197
52_0_35,52,35,0,ตลาดน้อย,13.732741,100.514593,53_0_35,53,หัวลำโพง,13.736629,100.514879,0.4334281972261733
53_0_35,53,35,0,หัวลำโพง,13.736629,100.514879,54_0_35,54,ศาลเจ้าพ่อเห้งเจีย,13.738892,100.5141,0.26532951661579446
54_0_35,54,35,0,ศาลเจ้าพ่อเห้งเจีย,13.738892,100.5141,55_0_35,55,แยกหมอมี,13.741101,100.512695,0.2887289993831345
55_0_35,55,35,0,แยกหมอมี,13.741101,100.512695,56_0_35,56,ตลาดโรงเรียน22/วงเวียน 22,13.743294,100.513004,0.2461239316445121
56_0_35,56,35,0,ตลาดโรงเรียน22/วงเวียน 22,13.743294,100.513004,57_0_35,57,แยกวัดพลัพลาชัย,13.744826,100.512335,0.18504257913119612
57_0_35,57,35,0,แยกวัดพลัพลาชัย,13.744826,100.512335,58_0_35,58,โรงพยาบาลกลาง,13.747265,100.509147,0.4383141947604624
58_0_35,58,35,0,โรงพยาบาลกลาง,13.747265,100.509147,59_0_35,59,สน.สำราญราษฏร์,13.751136,100.504176,0.6881484925438024
59_0_35,59,35,0,สน.สำราญราษฏร์,13.751136,100.504176,60_0_35,60,วัดราชชนัดดา,13.754367,100.504976,0.3695151510161156
60_0_35,60,35,0,วัดราชชนัดดา,13.754367,100.504976,61_0_35,61,นิทรรศน์รัตน์โกสินทร์,13.756092,100.503719,0.2349962965239382
61_0_35,61,35,0,นิทรรศน์รัตน์โกสินทร์,13.756092,100.503719,62_0_35,62,กองสลาก,13.756829,100.500147,0.39440299329176065
62_0_35,62,35,0,กองสลาก,13.756829,100.500147,63_0_35,63,แยกคอกวัว,13.757285,100.497855,0.2526871423003343
63_0_35,63,35,0,แยกคอกวัว,13.757285,100.497855,64_0_35,64,สะพานปิ่นเกล้า,13.765165,100.488189,1.3629392346041407
64_0_35,64,35,0,สะพานปิ่นเกล้า,13.765165,100.488189,65_0_35,65,พาต้าปิ่นเกล้า,13.771029,100.483577,0.8205271370490719
65_0_35,65,35,0,พาต้าปิ่นเกล้า,13.771029,100.483577,66_0_35,66,โลตัสปิ่นเกล้า,13.776886,100.478327,0.8634949484319168
66_0_35,66,35,0,โลตัสปิ่นเกล้า,13.776886,100.478327,67_0_35,67,เซ็นทรัลปิ่นเกล้า,13.778891,100.476474,0.29958483013228304
67_0_35,67,35,0,เซ็นทรัลปิ่นเกล้า,13.778891,100.476474,68_0_35,68,เดอะเซ็นท์,13.780616,100.474884,0.25744193295845735
68_0_35,68,35,0,เดอะเซ็นท์,13.780616,100.474884,69_0_35,69,โรงบาลเจ้าพระยา,13.783729,100.471975,0.4674524220507971
69_0_35,69,35,0,โรงบาลเจ้าพระยา,13.783729,100.471975,70_0_35,70,สายใต้เก่า,13.785635,100.47014,0.29015034602359147
70_0_35,70,35,0,สายใต้เก่า,13.785635,100.47014,71_0_35,71,แยกชัยพฤกษ์,13.785396,100.461539,0.9292184982607617
71_0_35,71,35,0,แยกชัยพฤกษ์,13.785396,100.461539,72_0_35,72,ศูนย์มนุษย์,13.784115,100.457321,0.477262966373553
72_0_35,72,35,0,ศูนย์มนุษย์,13.784115,100.457321,73_0_35,73,ซีด้า แมนชั่น,13.783043,100.453777,0.40085962173439466
73_0_35,73,35,0,ซีด้า แมนชั่น,13.783043,100.453777,74_0_35,74,สน.ตลิ่งชัน,13.780403,100.445107,0.9812448353023882
74_0_35,74,35,0,สน.ตลิ่งชัน,13.780403,100.445107,75_0_35,75,วัดทอง,13.779827,100.442988,0.23763415644659627
75_0_35,75,35,0,วัดทอง,13.779827,100.442988,76_0_35,76,ศาลแขวง,13.779681,100.439461,0.3812426636628767
76_0_35,76,35,0,ศาลแขวง,13.779681,100.439461,77_0_35,77,หมู่บ้านนันทวัน,13.779862,100.437645,0.1971481332061193
77_0_35,77,35,0,หมู่บ้านนันทวัน,13.779862,100.437645,78_0_35,78,ไปรษณีย์วัดมะกอก,13.78054,100.431016,0.7198533258344606
78_0_35,78,35,0,ไปรษณีย์วัดมะกอก,13.78054,100.431016,79_0_35,79,สถานีขนส่งผู้โดยสารกรุงเทพ (ตลิ่งชัน),13.781264,100.423497,0.815988202423457
80_1_35,80,35,1,สายใต้ใหม่,13.781399,100.427556,81_1_35,81,ไปรษณีตลิ่งชัน,13.780925,100.432022,0.4851722064335202
81_1_35,81,35,1,ไปรษณีตลิ่งชัน,13.780925,100.432022,82_1_35,82,ศาลแขวง,13.780243,100.439348,0.7947915765665129
82_1_35,82,35,1,ศาลแขวง,13.780243,100.439348,83_1_35,83,วัดทอง,13.7804,100.442939,0.3882002994243849
83_1_35,83,35,1,วัดทอง,13.7804,100.442939,84_1_35,84,สน.ตลิ่งชัน,13.780966,100.445004,0.2317185914617455
84_1_35,84,35,1,สน.ตลิ่งชัน,13.780966,100.445004,85_1_35,85,เบนซ์ตลิ่งชัน,13.783291,100.452668,0.8670992907051833
85_1_35,85,35,1,เบนซ์ตลิ่งชัน,13.783291,100.452668,86_1_35,86,ศูนย์มนุษย์/เสรีกอล์ฟ,13.784442,100.456633,0.4469090829856283
86_1_35,86,35,1,ศูนย์มนุษย์/เสรีกอล์ฟ,13.784442,100.456633,87_1_35,87,ชัยพฤกษ์,13.786038,100.461922,0.5981050006802426
87_1_35,87,35,1,ชัยพฤกษ์,13.786038,100.461922,88_1_35,88,สายใต้เก่า,13.78549,100.470744,0.9546502914644323
88_1_35,88,35,1,สายใต้เก่า,13.78549,100.470744,89_1_35,89,โรงพยาบาลเจ้าพระยา,13.783975,100.472164,0.22780430164502874
89_1_35,89,35,1,โรงพยาบาลเจ้าพระยา,13.783975,100.472164,90_1_35,90,บรมราชชนนี ซ.4,13.781797,100.474208,0.32768525605429005
90_1_35,90,35,1,บรมราชชนนี ซ.4,13.781797,100.474208,91_1_35,91,ลุมพินีปาร์ค ปิ่นเกล้า,13.780606,100.47532,0.1787734925475349
91_1_35,91,35,1,ลุมพินีปาร์ค ปิ่นเกล้า,13.780606,100.47532,92_1_35,92,เซนทรัลปิ่นเกล้า,13.777966,100.4778,0.3973734355360206
92_1_35,92,35,1,เซนทรัลปิ่นเกล้า,13.777966,100.4778,93_1_35,93,โลตัสปิ่นเกล้า,13.776723,100.479002,0.18961622958987218
93_1_35,93,35,1,โลตัสปิ่นเกล้า,13.776723,100.479002,94_1_35,94,ลุมพินีปาร์ค,13.77672,100.479003,0.00035063076859527634
94_1_35,94,35,1,ลุมพินีปาร์ค,13.77672,100.479003,95_1_35,95,พาต้าปิ่นเกล้า,13.771205,100.484002,0.8170262147788313
95_1_35,95,35,1,พาต้าปิ่นเกล้า,13.771205,100.484002,96_1_35,96,สะพานปิ่นเกล้า,13.765709,100.488323,0.768930930206218
96_1_35,96,35,1,สะพานปิ่นเกล้า,13.765709,100.488323,97_1_35,97,กองสลาก,13.757808,100.49761,1.333381702330598
97_1_35,97,35,1,กองสลาก,13.757808,100.49761,98_1_35,98,ศาลาว่าการกทม,13.755352,100.501603,0.5104608593828673
98_1_35,98,35,1,ศาลาว่าการกทม,13.755352,100.501603,99_1_35,99,ศึกษาพัน,13.757262,100.500104,0.26705408872069863
99_1_35,99,35,1,ศึกษาพัน,13.757262,100.500104,100_1_35,100,เสาชิงช้า,13.752783,100.501105,0.5096415864867866
100_1_35,100,35,1,เสาชิงช้า,13.752783,100.501105,101_1_35,101,โรงเรียนเบญจมราชาลัย,13.750879,100.501952,0.23063459437629746
101_1_35,101,35,1,โรงเรียนเบญจมราชาลัย,13.750879,100.501952,102_1_35,102,สามยอด,13.746932,100.501935,0.4388902163593857
102_1_35,102,35,1,สามยอด,13.746932,100.501935,103_1_35,103,คลองถม/เสือป่า,13.744076,100.507563,0.6858377994478688
103_1_35,103,35,1,คลองถม/เสือป่า,13.744076,100.507563,104_1_35,104,เยาวราช,13.740975,100.511489,0.5465525006006853
104_1_35,104,35,1,เยาวราช,13.740975,100.511489,105_1_35,105,วัดไตรมิตร,13.738525,100.512895,0.311897680448521
105_1_35,105,35,1,วัดไตรมิตร,13.738525,100.512895,106_1_35,106,หัวลำโพง,13.736464,100.516093,0.4145375149761569
106_1_35,106,35,1,หัวลำโพง,13.736464,100.516093,107_1_35,107,โรงเรียนสตรีวัดมหาพฤฒาราม,13.732432,100.515738,0.4499747651321551
107_1_35,107,35,1,โรงเรียนสตรีวัดมหาพฤฒาราม,13.732432,100.515738,108_1_35,108,สีพระยา,13.730449,100.516883,0.2528173628417044
108_1_35,108,35,1,สีพระยา,13.730449,100.516883,109_1_35,109,วัดแก้วแจ่มฟ้า,13.730953,100.519455,0.28341634907609026
109_1_35,109,35,1,วัดแก้วแจ่มฟ้า,13.730953,100.519455,110_1_35,110,ซอยสองพระ,13.73134,100.521725,0.24894605918237286
110_1_35,110,35,1,ซอยสองพระ,13.73134,100.521725,111_1_35,111,สน.บางรัก,13.729764,100.523671,0.2736693269486253
111_1_35,111,35,1,สน.บางรัก,13.729764,100.523671,112_1_35,112,วัดแขก,13.727287,100.523069,0.2830019413112017
112_1_35,112,35,1,วัดแขก,13.727287,100.523069,113_1_35,113,มเหสักข์,13.726284,100.519824,0.3678370041890549
113_1_35,113,35,1,มเหสักข์,13.726284,100.519824,114_1_35,114,โอเรียนเต็ล/โรงเรียนอัสสัมชัน,13.724703,100.516265,0.4227302074324253
114_1_35,114,35,1,โอเรียนเต็ล/โรงเรียนอัสสัมชัน,13.724703,100.516265,115_1_35,115,โรบินสันบางรัก,13.720161,100.515871,0.506837459183733
115_1_35,115,35,1,โรบินสันบางรัก,13.720161,100.515871,116_1_35,116,วัดยานนาวา,13.717193,100.514572,0.358619093181757
116_1_35,116,35,1,วัดยานนาวา,13.717193,100.514572,117_1_35,117,วัดดอน,13.71579,100.513961,0.16939407848998222
117_1_35,117,35,1,วัดดอน,13.71579,100.513961,118_1_35,118,วัดสุทธิวราราม,13.713003,100.512745,0.3365904171503429
118_1_35,118,35,1,วัดสุทธิวราราม,13.713003,100.512745,119_1_35,119,สะพานปลา/โฟซีซั่น,13.711405,100.512055,0.19268998851279467
119_1_35,119,35,1,สะพานปลา/โฟซีซั่น,13.711405,100.512055,120_1_35,120,วัดลุ่ม/สะพาน1,13.709415,100.513522,0.27217314086462707
120_1_35,120,35,1,วัดลุ่ม/สะพาน1,13.709415,100.513522,121_1_35,121,วัดลุ่ม,13.708483,100.51566,0.25314713624603163
121_1_35,121,35,1,วัดลุ่ม,13.708483,100.51566,122_1_35,122,จันทร์ 40,13.70808,100.517844,0.2401500338158414
122_1_35,122,35,1,จันทร์ 40,13.70808,100.517844,123_1_35,123,สะพาน2,13.70754,100.520703,0.3146340228564287
123_1_35,123,35,1,สะพาน2,13.70754,100.520703,124_1_35,124,เย็นจิตร,13.706968,100.523786,0.3390691954495216
124_1_35,124,35,1,เย็นจิตร,13.706968,100.523786,125_1_35,125,สะพาน3,13.706358,100.526104,0.2594334073545217
125_1_35,125,35,1,สะพาน3,13.706358,100.526104,126_1_35,126,สะพาน 4,13.705358,100.528939,0.3258223916996243
126_1_35,126,35,1,สะพาน 4,13.705358,100.528939,127_1_35,127,ยานนาเวท,13.703291,100.529775,0.246946834987363
127_1_35,127,35,1,ยานนาเวท,13.703291,100.529775,128_1_35,128,สาธุ 11,13.701301,100.530543,0.23632070566419586
128_1_35,128,35,1,สาธุ 11,13.701301,100.530543,129_1_35,129,วัดโพธิ์แมน,13.698832,100.53155,0.2953084605238124
129_1_35,129,35,1,วัดโพธิ์แมน,13.698832,100.53155,130_1_35,130,ตลาดรุ่งเจริญ,13.692704,100.533943,0.728796165395571
130_1_35,130,35,1,ตลาดรุ่งเจริญ,13.692704,100.533943,131_1_35,131,สาธุ 43,13.690317,100.534207,0.26695028868923476
131_1_35,131,35,1,สาธุ 43,13.690317,100.534207,132_1_35,132,สาธุ 49,13.686367,100.532793,0.4650279304588268
132_1_35,132,35,1,สาธุ 49,13.686367,100.532793,133_1_35,133,ตลาดลานทราย,13.684519,100.532414,0.20952808608366866
133_1_35,133,35,1,ตลาดลานทราย,13.684519,100.532414,134_1_35,134,สาธุ 57,13.680642,100.530612,0.4730248894551527
134_1_35,134,35,1,สาธุ 57,13.680642,100.530612,135_1_35,135,วัดทองบน,13.681429,100.526269,0.47730862067508445
135_1_35,135,35,1,วัดทองบน,13.681429,100.526269,136_1_35,136,ICC,13.683376,100.523689,0.35294146308578106
136_1_35,136,35,1,ICC,13.683376,100.523689,137_1_35,137,Home Proใหม่,13.686489,100.518823,0.6294402708917919
137_1_35,137,35,1,Home Proใหม่,13.686489,100.518823,138_1_35,138,ริเวอร์ไซด์วิลล่า,13.687649,100.516542,0.27814861510969885
138_1_35,138,35,1,ริเวอร์ไซด์วิลล่า,13.687649,100.516542,139_1_35,139,วัดบางโคล่นอก,13.688686,100.513317,0.3670036859131124
139_1_35,139,35,1,วัดบางโคล่นอก,13.688686,100.513317,140_1_35,140,แยกเจริญราษฏร์,13.689269,100.511161,0.24177931123044058
140_1_35,140,35,1,แยกเจริญราษฏร์,13.689269,100.511161,141_1_35,141,โรงแรมมณเฑียน,13.689522,100.507911,0.3522428762881586
141_1_35,141,35,1,โรงแรมมณเฑียน,13.689522,100.507911,142_1_35,142,ทรีออนธรี,13.68997,100.504453,0.3768952641969663
142_1_35,142,35,1,ทรีออนธรี,13.68997,100.504453,143_1_35,143,วัดจันทร์นอก,13.691447,100.502118,0.3010146045377958
143_1_35,143,35,1,วัดจันทร์นอก,13.691447,100.502118,144_1_35,144,วัดอินทร์บรรจง,13.692969,100.500745,0.2250424262283934
144_1_35,144,35,1,วัดอินทร์บรรจง,13.692969,100.500745,145_1_35,145,ก่อนแยกถนนตก,13.696029,100.497846,0.46245275164002203
145_1_35,145,35,1,ก่อนแยกถนนตก,13.696029,100.497846,146_1_35,146,แยกถนนตก,13.697609,100.496462,0.23069832504804083
146_1_35,146,35,1,แยกถนนตก,13.697609,100.496462,147_1_35,147,แยกบุคคโล,13.703539,100.487362,1.183740444064073
147_1_35,147,35,1,แยกบุคคโล,13.703539,100.487362,148_1_35,148,โกลบอว/แสงทองโทรทัศน์,13.702014,100.484894,0.3159746927430413
148_1_35,148,35,1,โกลบอว/แสงทองโทรทัศน์,13.702014,100.484894,149_1_35,149,Big C ดาวคะนอง,13.702016,100.484894,0.00022238985328429384
149_1_35,149,35,1,Big C ดาวคะนอง,13.702016,100.484894,150_1_35,150,ตลาดดาวคะนอง,13.696009,100.482805,0.7050426733163069
150_1_35,150,35,1,ตลาดดาวคะนอง,13.696009,100.482805,151_1_35,151,ตลาดอินดี้ ซอยปลั่ง,13.691116,100.481377,0.5655260267364028
151_1_35,151,35,1,ตลาดอินดี้ ซอยปลั่ง,13.691116,100.481377,152_1_35,152,วัดนาคนิมิตร,13.689306,100.482482,0.2340047197467791
152_1_35,152,35,1,วัดนาคนิมิตร,13.689306,100.482482,153_1_35,153,Big C บางปะกอก,13.682047,100.492755,1.3723457386991376
153_1_35,153,35,1,Big C บางปะกอก,13.682047,100.492755,154_1_35,154,วัดบางปะกอก,13.681062,100.494146,0.18596036020092194
154_1_35,154,35,1,วัดบางปะกอก,13.681062,100.494146,155_1_35,155,ซอยอนามัย,13.679133,100.497063,0.3812219759695064
155_1_35,155,35,1,ซอยอนามัย,13.679133,100.497063,156_1_35,156,โรงพยาบาลบางปะกอก1,13.678044,100.498787,0.22216433481539694
156_1_35,156,35,1,โรงพยาบาลบางปะกอก1,13.678044,100.498787,157_1_35,157,ตลาดบางปะกอก,13.677363,100.499881,0.140373537760564
157_1_35,157,35,1,ตลาดบางปะกอก,13.677363,100.499881,158_1_35,158,วัดสารอด,13.674381,100.504592,0.6074669185475687
158_1_35,158,35,1,วัดสารอด,13.674381,100.504592,159_1_35,159,กิโล9,13.67281,100.507098,0.32221876171355146
159_1_35,159,35,1,กิโล9,13.67281,100.507098,160_1_35,160,แยกประชาอุทิศ,13.670251,100.511187,0.5254988316064524
160_1_35,160,35,1,แยกประชาอุทิศ,13.670251,100.511187,161_1_35,161,วัดสน2,13.668836,100.513385,0.2848764596335077
161_1_35,161,35,1,วัดสน2,13.668836,100.513385,162_1_35,162,วัดรวด,13.666642,100.515973,0.37108833693422705
0_0_39,0,39,0,มหาวิทยาลัยธรรมศาสตร์(ศูนย์รังสิต),14.0748,100.602323,1_0_39,1,ธรรมศาสตร์ 1,14.075498,100.601528,0.11565602583353086
1_0_39,1,39,0,ธรรมศาสตร์ 1,14.075498,100.601528,2_0_39,2,แยกAIT,14.075955,100.615434,1.5007105014058282
2_0_39,2,39,0,แยกAIT,14.075955,100.615434,3_0_39,3,ศาลอุทธรณ์,14.085762,100.617848,1.1211389066208863
3_0_39,3,39,0,ศาลอุทธรณ์,14.085762,100.617848,4_0_39,4,ตลาดไอยรา,14.089718,100.618594,0.4471844675295289
4_0_39,4,39,0,ตลาดไอยรา,14.089718,100.618594,5_0_39,5,ศาลอุทธรณ์ภาค 1 ฝั่งกลับ,14.085648,100.618461,0.4527906153955608
5_0_39,5,39,0,ศาลอุทธรณ์ภาค 1 ฝั่งกลับ,14.085648,100.618461,6_0_39,6,ปากทางเข้าตลาดไท,14.081567,100.618281,0.45420157013724977
6_0_39,6,39,0,ปากทางเข้าตลาดไท,14.081567,100.618281,7_0_39,7,หน้าโรงพยาบาลธรรมศาสตร์ ขาไป,14.07527,100.618074,0.7005502995018942
7_0_39,7,39,0,หน้าโรงพยาบาลธรรมศาสตร์ ขาไป,14.07527,100.618074,8_0_39,8,คลองบางขันธ์,14.066644,100.61775,0.9598038381879374
8_0_39,8,39,0,คลองบางขันธ์,14.066644,100.61775,9_0_39,9,ตรงข้ามหน้าหมู่บ้านกฤษดา,14.060294,100.61748,0.7066881168501921
9_0_39,9,39,0,ตรงข้ามหน้าหมู่บ้านกฤษดา,14.060294,100.61748,10_0_39,10,สะพานลอยตรงข้ามซอยรัตนะ,14.056434,100.617314,0.429585737638
10_0_39,10,39,0,สะพานลอยตรงข้ามซอยรัตนะ,14.056434,100.617314,11_0_39,11,โรงบาลภัทร-ธนบุรี,14.048883,100.617027,0.8402034172830801
11_0_39,11,39,0,โรงบาลภัทร-ธนบุรี,14.048883,100.617027,12_0_39,12,สะพานตรงข้ามสนามกอล์ฟ,14.044796,100.616866,0.45478538737081714
12_0_39,12,39,0,สะพานตรงข้ามสนามกอล์ฟ,14.044796,100.616866,13_0_39,13,มหาวิทยาลัยกรุงเทพ,14.039786,100.616655,0.5575513643475276
13_0_39,13,39,0,มหาวิทยาลัยกรุงเทพ,14.039786,100.616655,14_0_39,14,โรงงานไก่,14.037162,100.616554,0.2919788379887515
14_0_39,14,39,0,โรงงานไก่,14.037162,100.616554,15_0_39,15,แก้วนิมิต,14.030629,100.616285,0.7270158226784733
15_0_39,15,39,0,แก้วนิมิต,14.030629,100.616285,16_0_39,16,สะพานตรงข้ามบุญถาวร,14.025837,100.616067,0.5333648183104095
16_0_39,16,39,0,สะพานตรงข้ามบุญถาวร,14.025837,100.616067,17_0_39,17,สะพานลอยหน้าWai Hao,14.019207,100.615838,0.7376361856556861
17_0_39,17,39,0,สะพานลอยหน้าWai Hao,14.019207,100.615838,18_0_39,18,สะพานลอยตรงข้ามไทวัสดุ,14.016033,100.615745,0.35307528019603074
18_0_39,18,39,0,สะพานลอยตรงข้ามไทวัสดุ,14.016033,100.615745,19_0_39,19,โรงกษาปณ์,14.009336,100.615516,0.7450821430689949
19_0_39,19,39,0,โรงกษาปณ์,14.009336,100.615516,20_0_39,20,บุญคุ้ม,14.006671,100.615433,0.2964697468058279
20_0_39,20,39,0,บุญคุ้ม,14.006671,100.615433,21_0_39,21,บริสโตน,14.000743,100.615255,0.6594432228388393
21_0_39,21,39,0,บริสโตน,14.000743,100.615255,22_0_39,22,ฟิวเจอร์พาร์ค,13.990949,100.615431,1.0892086546783823
22_0_39,22,39,0,ฟิวเจอร์พาร์ค,13.990949,100.615431,23_0_39,23,เมเจอร์ รังสิต,13.987341,100.616121,0.4080405671549171
23_0_39,23,39,0,เมเจอร์ รังสิต,13.987341,100.616121,24_0_39,24,โรงเรียนธัญบุรี,13.974865,100.618215,1.4055472535226274
24_0_39,24,39,0,โรงเรียนธัญบุรี,13.974865,100.618215,25_0_39,25,อู่โชคชัย,13.969299,100.619206,0.628080918275563
25_0_39,25,39,0,อู่โชคชัย,13.969299,100.619206,26_0_39,26,ตรงข้ามวัดประยูรจินดารามพหลโยธิน 84,13.965838,100.61988,0.3916576796040832
26_0_39,26,39,0,ตรงข้ามวัดประยูรจินดารามพหลโยธิน 84,13.965838,100.61988,27_0_39,27,โรงพยาบาลแพทย์รังสิต,13.963742,100.620242,0.23631546634300182
27_0_39,27,39,0,โรงพยาบาลแพทย์รังสิต,13.963742,100.620242,28_0_39,28,เซียร์ รังสิต,13.960473,100.620822,0.36884510503271206
28_0_39,28,39,0,เซียร์ รังสิต,13.960473,100.620822,29_0_39,29,ตลาดปากทางลำลูกกา,13.948776,100.622899,1.319818023776609
29_0_39,29,39,0,ตลาดปากทางลำลูกกา,13.948776,100.622899,30_0_39,30,พหลโยธินกม 27,13.945688,100.623408,0.34773577857872956
30_0_39,30,39,0,พหลโยธินกม 27,13.945688,100.623408,31_0_39,31,โรงพยาบาลบีแคร์,13.943324,100.623808,0.26638564624472466
31_0_39,31,39,0,โรงพยาบาลบีแคร์,13.943324,100.623808,32_0_39,32,ซอยวิภาวดีรังสิต39,13.940414,100.624303,0.3279571996288332
32_0_39,32,39,0,ซอยวิภาวดีรังสิต39,13.940414,100.624303,33_0_39,33,กม.26,13.936373,100.625019,0.45593433890117635
33_0_39,33,39,0,กม.26,13.936373,100.625019,34_0_39,34,กม.25,13.933869,100.625491,0.2830534397193393
34_0_39,34,39,0,กม.25,13.933869,100.625491,35_0_39,35,แยก คปอ,13.926052,100.626684,0.8786950374374749
35_0_39,35,39,0,แยก คปอ,13.926052,100.626684,36_0_39,36,โรงเรียนนายเรืออากาศ,13.922422,100.624481,0.4684603384904576
36_0_39,36,39,0,โรงเรียนนายเรืออากาศ,13.922422,100.624481,37_0_39,37,พิพิธภัณฑ์กองทัพอากาศ,13.920961,100.623638,0.18619865959855583
37_0_39,37,39,0,พิพิธภัณฑ์กองทัพอากาศ,13.920961,100.623638,38_0_39,38,กองทัพทหารอากาศ,13.919082,100.622515,0.24154612605551273
38_0_39,38,39,0,กองทัพทหารอากาศ,13.919082,100.622515,39_0_39,39,โรงเรียนฤทธิยะวรรณาลัย,13.9162,100.62082,0.3690052741987879
39_0_39,39,39,0,โรงเรียนฤทธิยะวรรณาลัย,13.9162,100.62082,40_0_39,40,หอประชุมกองทัพอากาศ,13.912762,100.618783,0.44100061543247726
40_0_39,40,39,0,หอประชุมกองทัพอากาศ,13.912762,100.618783,41_0_39,41,โรงพยาบาลภูมิพลอดุลยเดช,13.910333,100.617309,0.3134657485801025
41_0_39,41,39,0,โรงพยาบาลภูมิพลอดุลยเดช,13.910333,100.617309,42_0_39,42,ท่าดินแดง,13.906405,100.615019,0.501861178408773
42_0_39,42,39,0,ท่าดินแดง,13.906405,100.615019,43_0_39,43,แยกวัดเกาะ(พาราธิการ),13.902344,100.612633,0.519840435224719
43_0_39,43,39,0,แยกวัดเกาะ(พาราธิการ),13.902344,100.612633,44_0_39,44,สะพานใหม่,13.895008,100.608297,0.9404554001495409
44_0_39,44,39,0,สะพานใหม่,13.895008,100.608297,45_0_39,45,บิ๊กซี สะพานใหม่,13.891381,100.60627,0.45883199466037816
45_0_39,45,39,0,บิ๊กซี สะพานใหม่,13.891381,100.60627,46_0_39,46,สายหยุด,13.888735,100.604659,0.341769726735833
46_0_39,46,39,0,สายหยุด,13.888735,100.604659,47_0_39,47,พหลโยทิน 46/4,13.88664,100.603418,0.2687234926503542
47_0_39,47,39,0,พหลโยทิน 46/4,13.88664,100.603418,48_0_39,48,พหลโยธิน 59,13.883316,100.601402,0.42891823270070784
48_0_39,48,39,0,พหลโยธิน 59,13.883316,100.601402,49_0_39,49,โลตัส หลักสี่,13.879617,100.599231,0.4733895145401162
49_0_39,49,39,0,โลตัส หลักสี่,13.879617,100.599231,50_0_39,50,อู่บางเขน,13.868721,100.592825,1.395042426321674
50_0_39,50,39,0,อู่บางเขน,13.868721,100.592825,51_0_39,51,ป้ายรถประจำทาง ธนาคารอาคารสงเคราะห์ 3,13.864473,100.590297,0.5455266017306505
51_0_39,51,39,0,ป้ายรถประจำทาง ธนาคารอาคารสงเคราะห์ 3,13.864473,100.590297,52_0_39,52,พหลโยธิน51,13.8634,100.589682,0.13654074684308967
52_0_39,52,39,0,พหลโยธิน51,13.8634,100.589682,53_0_39,53,กองพันทหารราบที่ 11,13.85973,100.587526,0.46979606775835336
53_0_39,53,39,0,กองพันทหารราบที่ 11,13.85973,100.587526,54_0_39,54,วัดบางบัว,13.85602,100.585389,0.4726619805260407
54_0_39,54,39,0,วัดบางบัว,13.85602,100.585389,55_0_39,55,มหาวิทยาลัยศรีประทุม,13.854101,100.584213,0.24829683403459726
55_0_39,55,39,0,มหาวิทยาลัยศรีประทุม,13.854101,100.584213,56_0_39,56,โรงเรียนสารวิทยา,13.852098,100.583017,0.25744499208084437
56_0_39,56,39,0,โรงเรียนสารวิทยา,13.852098,100.583017,57_0_39,57,กรมวิทยาศาสตร์ทหารบก,13.84823,100.580753,0.4947036475929049
57_0_39,57,39,0,กรมวิทยาศาสตร์ทหารบก,13.84823,100.580753,58_0_39,58,โรมแรมมารวยการ์เด้น,13.845335,100.579088,0.36869905440373674
58_0_39,58,39,0,โรมแรมมารวยการ์เด้น,13.845335,100.579088,59_0_39,59,ธนาคารเพื่อการเกษตรและสหกรณ์การเกษตร สำนักงานใหญ่,13.843125,100.577793,0.28273055843983574
59_0_39,59,39,0,ธนาคารเพื่อการเกษตรและสหกรณ์การเกษตร สำนักงานใหญ่,13.843125,100.577793,60_0_39,60,มหาวิทยาลัยเกษตร,13.841514,100.576803,0.2085999991244342
60_0_39,60,39,0,มหาวิทยาลัยเกษตร,13.841514,100.576803,61_0_39,61,ตรงข้ามตลาดอมรพันธ์,13.837997,100.57472,0.4511268254010082
61_0_39,61,39,0,ตรงข้ามตลาดอมรพันธ์,13.837997,100.57472,62_0_39,62,ตลาดบางเขน,13.83519,100.573067,0.35954633771785194
62_0_39,62,39,0,ตลาดบางเขน,13.83519,100.573067,63_0_39,63,สถานีรัชโยธิน,13.830192,100.57012,0.640393628552916
63_0_39,63,39,0,สถานีรัชโยธิน,13.830192,100.57012,64_0_39,64,เมเจอร์ รัชโยธิน,13.828669,100.569272,0.19251647399973054
64_0_39,64,39,0,เมเจอร์ รัชโยธิน,13.828669,100.569272,65_0_39,65,พหลโยธิน 24 (ตึกช้าง),13.825036,100.567111,0.46651387155556445
65_0_39,65,39,0,พหลโยธิน 24 (ตึกช้าง),13.825036,100.567111,66_0_39,66,โรงเรียนสตรีวรนาถบางเขน,13.822275,100.565526,0.35148721547853046
66_0_39,66,39,0,โรงเรียนสตรีวรนาถบางเขน,13.822275,100.565526,67_0_39,67,กองบังคับการปราบปราม,13.819744,100.564005,0.3258481533796463
67_0_39,67,39,0,กองบังคับการปราบปราม,13.819744,100.564005,68_0_39,68,ตรงข้ามโรงเรียนหอวัง,13.818004,100.56299,0.22236343495513342
68_0_39,68,39,0,ตรงข้ามโรงเรียนหอวัง,13.818004,100.56299,69_0_39,69,ตรงข้ามเซนทรัลลาดพร้าว,13.81538,100.56144,0.3363688545443015
69_0_39,69,39,0,ตรงข้ามเซนทรัลลาดพร้าว,13.81538,100.56144,70_0_39,70,ธนาคารทหารไทย,13.808742,100.557552,0.8491537196649599
70_0_39,70,39,0,ธนาคารทหารไทย,13.808742,100.557552,71_0_39,71,ตรงข้ามสวนจตุจักร,13.802328,100.553782,0.8212102637470889
71_0_39,71,39,0,ตรงข้ามสวนจตุจักร,13.802328,100.553782,72_0_39,72,กรมการขนส่งทางบก,13.800347,100.552636,0.25265820424127067
72_0_39,72,39,0,กรมการขนส่งทางบก,13.800347,100.552636,73_0_39,73,แยกกำแพงเพชร,13.797258,100.551084,0.3821871274376942
73_0_39,73,39,0,แยกกำแพงเพชร,13.797258,100.551084,74_0_39,74,ตรงข้ามวัดไผ่ตัน,13.794642,100.550126,0.30873428917525975
74_0_39,74,39,0,ตรงข้ามวัดไผ่ตัน,13.794642,100.550126,75_0_39,75,สถานีสะพานควาย(ทางออก2),13.792949,100.549533,0.19884648452795006
75_0_39,75,39,0,สถานีสะพานควาย(ทางออก2),13.792949,100.549533,76_0_39,76,สน.บางซื่อ,13.786388,100.547165,0.7730691699969686
76_0_39,76,39,0,สน.บางซื่อ,13.786388,100.547165,77_0_39,77,ซอยสายลม,13.783965,100.546289,0.2855509664086684
77_0_39,77,39,0,ซอยสายลม,13.783965,100.546289,78_0_39,78,ตรงข้ามซอยอารีย์,13.779963,100.544857,0.4711077232082363
78_0_39,78,39,0,ตรงข้ามซอยอารีย์,13.779963,100.544857,79_0_39,79,ตรงข้ามซอยราชครู,13.776688,100.543652,0.3867168145885455
79_0_39,79,39,0,ตรงข้ามซอยราชครู,13.776688,100.543652,80_0_39,80,ซอยพหลโยธิน 2,13.774769,100.542959,0.22612736729709138
80_0_39,80,39,0,ซอยพหลโยธิน 2,13.774769,100.542959,81_0_39,81,สถานีสนามเป้า(ทางออก4),13.773009,100.542257,0.2098748875376585
81_0_39,81,39,0,สถานีสนามเป้า(ทางออก4),13.773009,100.542257,82_0_39,82,ตรงข้าม โรงพยาบาลพญาไท2,13.769824,100.541175,0.37293603483554677
82_0_39,82,39,0,ตรงข้าม โรงพยาบาลพญาไท2,13.769824,100.541175,83_0_39,83,ตรงข้ามซอยลือชา,13.767556,100.539884,0.28816643875311393
84_1_39,84,39,1,อนุสาวรีย์ชัยสมรภูมิ(พหลโยธิน),13.765645,100.537936,85_1_39,85,ซอยลือชา,13.767712,100.539703,0.2987393136365094
85_1_39,85,39,1,ซอยลือชา,13.767712,100.539703,86_1_39,86,โรงพยาบาลพญาไท2,13.770098,100.541007,0.30037222985947476
86_1_39,86,39,1,โรงพยาบาลพญาไท2,13.770098,100.541007,87_1_39,87,สนามเป้า,13.772,100.541713,0.2248172359314517
87_1_39,87,39,1,สนามเป้า,13.772,100.541713,88_1_39,88,สถานีสนามเป้า (ทางออก3),13.773664,100.542308,0.1958690130901982
88_1_39,88,39,1,สถานีสนามเป้า (ทางออก3),13.773664,100.542308,89_1_39,89,ซอยราชครู,13.776559,100.543386,0.3423146638994631
89_1_39,89,39,1,ซอยราชครู,13.776559,100.543386,90_1_39,90,ซอยอารีย์สัมพันธ์,13.779727,100.544536,0.37351747448392714
90_1_39,90,39,1,ซอยอารีย์สัมพันธ์,13.779727,100.544536,91_1_39,91,ตำรวจตระเวนชายแดน,13.78421,100.546115,0.5268461194888725
91_1_39,91,39,1,ตำรวจตระเวนชายแดน,13.78421,100.546115,92_1_39,92,ตรงข้าม สน.บางซื่อ,13.786653,100.547004,0.28811494277663396
92_1_39,92,39,1,ตรงข้าม สน.บางซื่อ,13.786653,100.547004,93_1_39,93,สะพานควาย (ทางออก1),13.793,100.549301,0.7480769989398515
93_1_39,93,39,1,สะพานควาย (ทางออก1),13.793,100.549301,94_1_39,94,วัดไผ่ตัน,13.794639,100.549882,0.19274582114984493
94_1_39,94,39,1,วัดไผ่ตัน,13.794639,100.549882,95_1_39,95,สวนจตุจักร,13.80279,100.553563,0.9896832323677031
95_1_39,95,39,1,สวนจตุจักร,13.80279,100.553563,96_1_39,96,ตรงข้าม ธนาคารทหารไทย สำนักงานใหญ่,13.808864,100.557188,0.7806311802025516
96_1_39,96,39,1,ตรงข้าม ธนาคารทหารไทย สำนักงานใหญ่,13.808864,100.557188,97_1_39,97,เซ็นทรัลลาดพร้าว,13.81596,100.561387,0.9100327585551456
97_1_39,97,39,1,เซ็นทรัลลาดพร้าว,13.81596,100.561387,98_1_39,98,โรงเรียนหอวัง (พหลโยธิน),13.819562,100.56362,0.4674985102087109
98_1_39,98,39,1,โรงเรียนหอวัง (พหลโยธิน),13.819562,100.56362,99_1_39,99,ตรงข้ามโรงเรียนสตรีวรนาถ,13.822152,100.565126,0.33073166022723044
99_1_39,99,39,1,ตรงข้ามโรงเรียนสตรีวรนาถ,13.822152,100.565126,100_1_39,100,ตรงข้ามตึกช้าง,13.824811,100.566702,0.3411394860520594
100_1_39,100,39,1,ตรงข้ามตึกช้าง,13.824811,100.566702,101_1_39,101,เมเจอร์ รัชโยธิน,13.830618,100.570118,0.7436250745039134
101_1_39,101,39,1,เมเจอร์ รัชโยธิน,13.830618,100.570118,102_1_39,102,ตรงข้ามตลาดบางเขน,13.835193,100.572789,0.5847736870525659
102_1_39,102,39,1,ตรงข้ามตลาดบางเขน,13.835193,100.572789,103_1_39,103,เสนานิคม,13.838192,100.574523,0.38243271582380817
103_1_39,103,39,1,เสนานิคม,13.838192,100.574523,104_1_39,104,มหาวิทยาลัยเกษตรศาสตร์ (พหลโยธิน),13.841164,100.576231,0.3784406847782338
104_1_39,104,39,1,มหาวิทยาลัยเกษตรศาสตร์ (พหลโยธิน),13.841164,100.576231,105_1_39,105,โรงพยาบาลสัตว์ ม.เกษตรศาสตร์,13.8433,100.577571,0.2781055034808758
105_1_39,105,39,1,โรงพยาบาลสัตว์ ม.เกษตรศาสตร์,13.8433,100.577571,106_1_39,106,สำนักงานการวิจัยแห่งชาติ,13.845285,100.578679,0.2510543278272682
106_1_39,106,39,1,สำนักงานการวิจัยแห่งชาติ,13.845285,100.578679,107_1_39,107,กรมป่าไม้,13.848544,100.580655,0.4205169565579706
107_1_39,107,39,1,กรมป่าไม้,13.848544,100.580655,108_1_39,108,ตรงข้ามโรงเรียนสารวิทยา,13.851392,100.582319,0.3640905346555928
108_1_39,108,39,1,ตรงข้ามโรงเรียนสารวิทยา,13.851392,100.582319,109_1_39,109,ตรงข้าม มหาวิทยาลัยศรีปทุม ,13.854961,100.584437,0.4580166356530293
109_1_39,109,39,1,ตรงข้าม มหาวิทยาลัยศรีปทุม ,13.854961,100.584437,110_1_39,110,โรงเรียนบางบัว,13.856216,100.585274,0.1662510074113953
110_1_39,110,39,1,โรงเรียนบางบัว,13.856216,100.585274,111_1_39,111,โรงเรียนปราโมชวิทยาทาน,13.860074,100.587451,0.4891515387456425
111_1_39,111,39,1,โรงเรียนปราโมชวิทยาทาน,13.860074,100.587451,112_1_39,112,ตรงข้ามบ้านบางเขน,13.862718,100.589017,0.33914156160952796
112_1_39,112,39,1,ตรงข้ามบ้านบางเขน,13.862718,100.589017,113_1_39,113,ตรงข้าม กองพันทหารราบที่11,13.865008,100.590339,0.2919039326577893
113_1_39,113,39,1,ตรงข้าม กองพันทหารราบที่11,13.865008,100.590339,114_1_39,114,ก่อนอู่บางเขน,13.868524,100.59236,0.44771791298569796
114_1_39,114,39,1,ก่อนอู่บางเขน,13.868524,100.59236,115_1_39,115,วัดพระศรี,13.870569,100.59364,0.26608552067091207
115_1_39,115,39,1,วัดพระศรี,13.870569,100.59364,116_1_39,116,ตรงข้ามโลตัส หลักสี่,13.88037,100.599334,1.251210597802297
116_1_39,116,39,1,ตรงข้ามโลตัส หลักสี่,13.88037,100.599334,117_1_39,117,พหลโยธิน59,13.883595,100.60129,0.41614734919794566
117_1_39,117,39,1,พหลโยธิน59,13.883595,100.60129,118_1_39,118,พหลโยธิน64/4,13.886527,100.603012,0.3752914157011584
118_1_39,118,39,1,พหลโยธิน64/4,13.886527,100.603012,119_1_39,119,สายหยุด,13.888547,100.604288,0.2634822355293849
119_1_39,119,39,1,สายหยุด,13.888547,100.604288,120_1_39,120,ตรงข้ามบิ๊กซี สะพานใหม่,13.892104,100.606313,0.4519024167337414
120_1_39,120,39,1,ตรงข้ามบิ๊กซี สะพานใหม่,13.892104,100.606313,121_1_39,121,ตรงข้ามสะพานใหม่,13.896906,100.609083,0.6119727504123152
121_1_39,121,39,1,ตรงข้ามสะพานใหม่,13.896906,100.609083,122_1_39,122,ตรงข้ามแยกวัดเกาะ,13.902382,100.612325,0.7022961966566332
122_1_39,122,39,1,ตรงข้ามแยกวัดเกาะ,13.902382,100.612325,123_1_39,123,ตรงข้ามท่าดินแดง,13.906426,100.614733,0.5193834628701798
123_1_39,123,39,1,ตรงข้ามท่าดินแดง,13.906426,100.614733,124_1_39,124,ตรงข้ามโรงพยาบาลภูมิพลอดุลยเดช,13.90962,100.616569,0.40670263088333325
124_1_39,124,39,1,ตรงข้ามโรงพยาบาลภูมิพลอดุลยเดช,13.90962,100.616569,125_1_39,125,ตรงข้ามหอประชุมกองทัพอากาศ,13.912648,100.618342,0.38728119405693817
125_1_39,125,39,1,ตรงข้ามหอประชุมกองทัพอากาศ,13.912648,100.618342,126_1_39,126,ตรงข้ามโรงเรียนฤทธิยะ,13.916113,100.620407,0.4451112810395602
126_1_39,126,39,1,ตรงข้ามโรงเรียนฤทธิยะ,13.916113,100.620407,127_1_39,127,ตรงข้ามพิพิธภัณฑ์กองทัพอากาศ,13.919887,100.622672,0.48566204334884766
127_1_39,127,39,1,ตรงข้ามพิพิธภัณฑ์กองทัพอากาศ,13.919887,100.622672,128_1_39,128,ตรงข้ามโรงเรียนนายเรือ,13.922058,100.623966,0.2788923059689387
128_1_39,128,39,1,ตรงข้ามโรงเรียนนายเรือ,13.922058,100.623966,129_1_39,129,BTS แยก คปอ. (ทางออก 3),13.925915,100.626107,0.48716705156357903
129_1_39,129,39,1,BTS แยก คปอ. (ทางออก 3),13.925915,100.626107,130_1_39,130,กม.25,13.930625,100.625684,0.5257140658973767
130_1_39,130,39,1,กม.25,13.930625,100.625684,131_1_39,131,ตรงข้ามพหลโยธิน กม.26,13.933901,100.625108,0.3695407121082413
131_1_39,131,39,1,ตรงข้ามพหลโยธิน กม.26,13.933901,100.625108,132_1_39,132,ตรงข้ามแอนเน็กซ์,13.936276,100.624683,0.2680414670530907
132_1_39,132,39,1,ตรงข้ามแอนเน็กซ์,13.936276,100.624683,133_1_39,133,ตรงข้าม ซอย 39,13.939992,100.624014,0.41946065243652436
133_1_39,133,39,1,ตรงข้าม ซอย 39,13.939992,100.624014,134_1_39,134,ตรงข้ามโรงพยาบาลบีแคร์,13.943219,100.623441,0.36411540558591493
134_1_39,134,39,1,ตรงข้ามโรงพยาบาลบีแคร์,13.943219,100.623441,135_1_39,135,พหลโยธิน กม.27,13.945445,100.622996,0.2521356058896916
135_1_39,135,39,1,พหลโยธิน กม.27,13.945445,100.622996,136_1_39,136,ตรงข้ามแยกลำลูกกา,13.94946,100.62227,0.45327012757383495
136_1_39,136,39,1,ตรงข้ามแยกลำลูกกา,13.94946,100.62227,137_1_39,137,ตรงข้ามเซียร์ รังสิต,13.960011,100.620272,1.1928652924168526
137_1_39,137,39,1,ตรงข้ามเซียร์ รังสิต,13.960011,100.620272,138_1_39,138,ตลาดสี่มุมเมือง,13.962426,100.619858,0.27222653368708444
138_1_39,138,39,1,ตลาดสี่มุมเมือง,13.962426,100.619858,139_1_39,139,ตรงข้ามวัดประยูร,13.96512,100.619333,0.3048690626594462
139_1_39,139,39,1,ตรงข้ามวัดประยูร,13.96512,100.619333,140_1_39,140,เมืองเอก,13.969363,100.618616,0.47810182715836225
140_1_39,140,39,1,เมืองเอก,13.969363,100.618616,141_1_39,141,แม็คโคร รังสิต,13.974576,100.617663,0.5887100102617923
141_1_39,141,39,1,แม็คโคร รังสิต,13.974576,100.617663,142_1_39,142,ตรงข้ามฟิวเจอร์,13.989829,100.614939,1.7213355047298722
142_1_39,142,39,1,ตรงข้ามฟิวเจอร์,13.989829,100.614939,143_1_39,143,โฮยา,13.998197,100.614521,0.931571496332334
143_1_39,143,39,1,โฮยา,13.998197,100.614521,144_1_39,144,ตรงข้ามบริสโตน,14.000265,100.614617,0.2301842596533355
144_1_39,144,39,1,ตรงข้ามบริสโตน,14.000265,100.614617,145_1_39,145,บขส.รังสิต,14.006134,100.614806,0.6529215209693594
145_1_39,145,39,1,บขส.รังสิต,14.006134,100.614806,146_1_39,146,ตรงข้ามโรงกษาปณ์,14.009694,100.614924,0.3960585998377187
146_1_39,146,39,1,ตรงข้ามโรงกษาปณ์,14.009694,100.614924,147_1_39,147,ไทวัสดุ,14.01562,100.615121,0.6592838030575996
147_1_39,147,39,1,ไทวัสดุ,14.01562,100.615121,148_1_39,148,หมู่บ้านไวท์เฮ้าท์,14.01887,100.615236,0.36159641489815947
148_1_39,148,39,1,หมู่บ้านไวท์เฮ้าท์,14.01887,100.615236,149_1_39,149,บุญถาวร,14.025671,100.615484,0.7567098187400384
149_1_39,149,39,1,บุญถาวร,14.025671,100.615484,150_1_39,150,ซอย หงส์สกุล,14.028576,100.615601,0.32326776393266543
150_1_39,150,39,1,ซอย หงส์สกุล,14.028576,100.615601,151_1_39,151,ตรงข้ามสุเหร่าแก้วนิมิตร,14.030461,100.615669,0.20973076579955907
151_1_39,151,39,1,ตรงข้ามสุเหร่าแก้วนิมิตร,14.030461,100.615669,152_1_39,152,โรงงานไก่,14.036848,100.615929,0.7107556223646428
152_1_39,152,39,1,โรงงานไก่,14.036848,100.615929,153_1_39,153,มหาวิทยาลัยกรุงเทพ,14.039884,100.616056,0.3378656694090146
153_1_39,153,39,1,มหาวิทยาลัยกรุงเทพ,14.039884,100.616056,154_1_39,154,Golf & Country Club,14.044723,100.616255,0.5385002866175316
154_1_39,154,39,1,Golf & Country Club,14.044723,100.616255,155_1_39,155,ซอย คุณพระ,14.048959,100.616435,0.4714217374018701
155_1_39,155,39,1,ซอย คุณพระ,14.048959,100.616435,156_1_39,156,ตรงข้าม ซอย รัตนะ,14.056288,100.61672,0.8155272522419733
156_1_39,156,39,1,ตรงข้าม ซอย รัตนะ,14.056288,100.61672,157_1_39,157,หมู่บ้านกฤษดา,14.060166,100.616881,0.4315634765791206
157_1_39,157,39,1,หมู่บ้านกฤษดา,14.060166,100.616881,158_1_39,158,บางขัน,14.065274,100.617012,0.5681594170036097
158_1_39,158,39,1,บางขัน,14.065274,100.617012,159_1_39,159,โรงพยาบาลธรรมศาสตร์,14.074916,100.617441,1.0731395112186954
0_0_40,0,40,0,ซอยมังกร11,13.789723139,100.426524549,1_0_40,1,ซอยบรมราชชนนี 56,13.7813987113,100.42757816,0.9326010688961112
1_0_40,1,40,0,ซอยบรมราชชนนี 56,13.7813987113,100.42757816,2_0_40,2,ไปรษณีย์ตลิ่งชัน,13.7809382999,100.431962943,0.4762893314618536
2_0_40,2,40,0,ไปรษณีย์ตลิ่งชัน,13.7809382999,100.431962943,3_0_40,3,ศาลแขวงตลิ่งชัน,13.7802535742,100.439353343,0.8017436312630468
3_0_40,3,40,0,ศาลแขวงตลิ่งชัน,13.7802535742,100.439353343,4_0_40,4,โรงเรียนวัดทอง,13.7804251572,100.443045865,0.39922748787555135
4_0_40,4,40,0,โรงเรียนวัดทอง,13.7804251572,100.443045865,5_0_40,5,สถานีตำรวนครบาลตลิ่งชัน,13.7809684434,100.445032312,0.2228682654697544
5_0_40,5,40,0,สถานีตำรวนครบาลตลิ่งชัน,13.7809684434,100.445032312,6_0_40,6,ซอยบรมราชชนนี 32,13.7832732887,100.452675891,0.8643273638071259
6_0_40,6,40,0,ซอยบรมราชชนนี 32,13.7832732887,100.452675891,7_0_40,7,ซอยบรมราชชนนี  30,13.7844493288,100.456669901,0.4507115955492735
7_0_40,7,40,0,ซอยบรมราชชนนี  30,13.7844493288,100.456669901,8_0_40,8,วัดชัยพฤกษ์,13.7860155786,100.461912636,0.5923545848310897
8_0_40,8,40,0,วัดชัยพฤกษ์,13.7860155786,100.461912636,9_0_40,9,ตรงข้ามสถาณีขนส่ง,13.7854952811,100.470745639,0.9556447095598635
9_0_40,9,40,0,ตรงข้ามสถาณีขนส่ง,13.7854952811,100.470745639,10_0_40,10,ตรงข้ามโรงพยาบาลเจ้าพระยา,13.7839469718,100.472189467,0.23227622523309302
10_0_40,10,40,0,ตรงข้ามโรงพยาบาลเจ้าพระยา,13.7839469718,100.472189467,11_0_40,11,ซอยบรมราชชนนี  4,13.781760906,100.474239837,0.3288115447689795
